stop_id,stop_name,stop_desc,stop_lat,stop_lon,zone_id
1_17,Trento-Autostaz.,,46.070785,11.118461,0001
2_17,Trento-Solteri Bivio Ss.12,,46.084046,11.119732,0001
3_17,Trento-Bren Center,,46.091322,11.115664,0001
4_17,Lavis,,46.138361,11.109139,1010
5_17,S.Michele A/Adige,,46.193684,11.132524,6110
6_17,Salorno-Salurn,,46.240611,11.208106,1030
7_17,Laghetti-Laag,,46.271948,11.238975,1040
8_17,Egna-Neumarkt,,46.315973,11.272452,1050
9_17,Cela-Aguai Bivio,,46.291364,11.418721,1060
10_17,Castello di F.-Via Stazione,,46.282069,11.428969,1060
11_17,Castello di Fiemme,,46.281206,11.434741,1060
12_17,Cavalese-Bivio Carano,,46.287417,11.441664,1070
14_17,Cavalese-P.Zza Partigiani,,46.291890,11.455508,1070
15_17,Cavalese-Piazza G.Verdi,,46.290334,11.460692,1070
17_17,Tesero-Giardino Dolomiti,,46.292465,11.484695,1190
18_17,Tesero-Loc. Piera,,46.292007,11.492392,1190
19_17,Tesero,,46.288877,11.510913,1190
20_17,Panchià-Casa Cantoniera,,46.287144,11.531920,1200
21_17,Panchia',,46.285513,11.541747,1200
22_17,Ziano di Fiemme,,46.286705,11.560498,1210
23_17,Ziano di Fiemme-Alla Roda,,46.288617,11.569941,1210
24_17,Predazzo-Borgo Nuovo,,46.306538,11.598956,1220
25_17,Predazzo-Autostaz.,,46.309520,11.604929,1220
26_17,Predazzo-Distributore Agip,,46.317177,11.597112,1220
27_17,Predazzo-Impianti Latemar,,46.328660,11.600173,1220
28_17,Mezzavalle,,46.337678,11.610035,1239
29_17,Forno,,46.347220,11.624669,1240
30_17,Forno-Albergo Foresta,,46.355078,11.634437,1240
31_17,Moena-Caserma Carabinieri,,46.369532,11.652359,1250
32_17,Moena-Albergo Trentino,,46.373211,11.655352,1250
33_17,Moena-Piazza Ramon,,46.376590,11.659822,1250
34_17,Moena-Pezzè,,46.381214,11.665691,1250
35_17,Soraga-Hotel Al Lago,,46.392382,11.666700,1270
36_17,Soraga,,46.396748,11.669557,1270
37_17,Vigo di Fassa,,46.421404,11.676292,1280
38_17,S.Giovanni di Fassa,,46.421216,11.682022,1280
39_17,Pozza di Fassa,,46.427261,11.682917,1300
40_17,Pera di Fassa,,46.435925,11.690519,1310
41_17,Pera di Fassa-Loc. Al Ponte,,46.441657,11.695427,1310
42_17,Mazzin di Fassa,,46.457958,11.701369,1320
43_17,Campestrin,,46.462994,11.715177,1330
44_17,Fontanazzo,,46.469686,11.727819,1340
45_17,Campitello di Fassa,,46.476504,11.740797,1350
46_17,Canazei-Hotel Caminetto,,46.479175,11.759202,1360
47_17,Canazei-Gries,,46.477899,11.763966,1360
48_17,Canazei-Via Pareda,,46.476409,11.770873,1360
49_17,Canazei-Fun. Belvedere,,46.474083,11.774376,1360
50_17,Canazei-Difr.Hotel Faloria,,46.471558,11.777820,1360
51_17,Alba di Canazei-Hotel Ariston,,46.466319,11.780898,1380
52_17,Alba di Canazei,,46.461948,11.783003,1380
53_17,Alba di Canazei-Fun.Ciampac,,46.459388,11.786093,1380
56_17,Penia Alta,,46.458443,11.799745,1390
58_17,Penia-Hotel Panarel,,46.457384,11.801813,1390
59_17,Penia,,46.457708,11.791880,1390
60_17,Alba di Canazei-Fun.Ciampac,,46.458434,11.789039,1380
61_17,Alba di Canazei,,46.462156,11.782952,1380
62_17,Canazei-Hotel Faloria,,46.471440,11.777940,1360
63_17,Canazei-Fun. Belvedere,,46.474069,11.774728,1360
64_17,Canazei-Gries,,46.477765,11.764662,1360
65_17,Canazei-Hotel Caminetto,,46.479389,11.759638,1360
67_17,Fontanazzo,,46.469607,11.726995,1340
68_17,Pozza di Fassa,,46.427925,11.683281,1300
69_17,Cavalese-Via Esterle,,46.293121,11.457264,1070
70_17,Cavalese-Hotel Garden,,46.289434,11.447907,1070
71_17,Laghetti-Laag,,46.272132,11.238775,1040
72_17,Salorno-Salurn,,46.240218,11.207190,1030
73_17,Lavis,,46.136494,11.109859,1010
74_17,Trento-Stazione Fs,,46.072600,11.120056,0001
77_17,Trento-Assoc. Artigiani,,46.082969,11.120310,0001
80_17,Gardolo-Bivio Spini,,46.118886,11.106155,0937
81_17,Gardolo-Loc.Lamar,,46.129071,11.109731,0937
82_17,Lavis-Via Cembra 16,,46.143208,11.106619,1010
83_17,Lavis-Via Bresadola,,46.143938,11.112489,1010
84_17,Lavis-Tornante-Via Cembra 50,,46.141935,11.114444,1010
85_17,Maso Franch,,46.143816,11.118841,1071
86_17,Mosana-Loc. Ai Castagnari,,46.150492,11.125740,1071
87_17,Mosana,,46.154400,11.137231,1071
88_17,Verla,,46.157055,11.152529,1072
89_17,Verla-Cantina Rossi,,46.154873,11.155408,1072
90_17,Valternigo,,46.160790,11.158790,1073
91_17,Ville di Giovo,,46.165785,11.157341,1074
92_17,Ville di Giovo-Maso Roncador,,46.162212,11.140586,1074
93_17,Passo Croce,,46.161487,11.134622,1075
94_17,Palu' di Giovo,,46.158215,11.140403,1075
95_17,Verla-Bivio,,46.155898,11.160681,1072
97_17,Lisignago,,46.160457,11.187635,1077
98_17,Lisignago-Loc.Bedin,,46.164966,11.203565,1077
99_17,Cembra-Cimitero,,46.174519,11.217348,1078
100_17,Cembra,,46.174956,11.221714,1078
101_17,Fadana,,46.177555,11.225071,1078
102_17,Cembra-Loc.Molini,,46.180271,11.228397,1078
103_17,Faver Bivio,,46.180959,11.231881,1079
104_17,Faver,,46.181716,11.237795,1079
105_17,Faver-Ufficio Postale,,46.183755,11.240754,1079
106_17,Faver-Loc. Portegnago,,46.197032,11.246634,1079
107_17,Valda-Capitello,,46.207069,11.262068,1080
108_17,Valda,,46.206784,11.266464,1080
110_17,Grauno,,46.229415,11.298255,1082
111_17,Capriana-Case Nuove,,46.261033,11.339913,1084
112_17,Capriana,,46.262789,11.339456,1084
113_17,Capriana-Albergo Miravalle,,46.262057,11.343992,1084
114_17,Carbonare-Rover,,46.266757,11.351746,1085
115_17,Stramentizzo Bivio,,46.266504,11.406487,1088
116_17,Molina di Fiemme-Paese,,46.272357,11.417227,1088
117_17,Molina di F.-Via Segherie,,46.272436,11.424112,1088
118_17,Molina di Fiemme-Scuole,,46.274181,11.416707,1088
119_17,Castello di Fiemme-Conc.Fiat,,46.278941,11.430137,1060
121_17,Castello di Fiemme,,46.281233,11.434752,1060
123_17,Molina di Fiemme-Via Segherie,,46.272409,11.424124,1088
124_17,Grumes,,46.221516,11.294054,1081
125_17,Faver,,46.181189,11.236672,1079
126_17,Fadana,,46.178185,11.225990,1078
127_17,Cembra,,46.175121,11.222045,1078
129_17,Ceola,,46.159543,11.170891,1076
130_17,Verla,,46.157152,11.152810,1072
131_17,Lavis-Via Bresadola,,46.143962,11.112745,1010
133_17,Lamar di Gardolo-Ss.12-Ftm,,46.125856,11.107861,0937
134_17,Gardolo-Ss.12,,46.108559,11.108767,0935
135_17,Gardolo-Cicli Moser,,46.102641,11.110469,0935
137_17,Casatta di Valfloriana,,46.250381,11.344532,1127
138_17,Barcatta,,46.250421,11.349659,1128
139_17,Villaggio Italo-Svizzero,,46.247854,11.346661,1129
140_17,Dora',,46.251863,11.355635,1135
141_17,Palu' di Sicina,,46.256917,11.363017,1135
142_17,Casanova di Sicina,,46.241992,11.349809,1135
143_17,Valle,,46.238605,11.351281,1135
144_17,Montalbiano,,46.234426,11.355133,1135
145_17,Sicina,,46.230004,11.358752,1135
532_17,Trento-Via Giusti,,46.063168,11.119074,0001
533_17,Trento-Via V.Veneto,,46.057701,11.119291,0001
535_17,Trento-Via Lorenzoni,,46.058380,11.122963,0001
537_17,Trento-Via S.Francesco,,46.066636,11.126202,0001
538_17,Montesover,,46.217084,11.327086,4070
539_17,Montesover-Strada Vernera,,46.218166,11.326641,4070
540_17,Montesover-Strada Vernera 17,,46.217389,11.324145,4070
541_17,Montesover-Carrozzeria,,46.215296,11.328103,4070
542_17,Sveseri Bivio,,46.207640,11.327808,1141
543_17,Piazzoli,,46.214258,11.323611,1123
544_17,Facendi,,46.214915,11.321421,1123
546_17,Sover,,46.223891,11.312418,1122
548_17,Nave S.Felice,,46.164603,11.112269,0946
549_17,Sorni Bivio,,46.174975,11.122031,0944
551_17,Sorni,,46.173837,11.120538,0944
552_17,Nave S.Felice,,46.166611,11.112923,0946
557_17,Cavalese-Case Itea,,46.289538,11.469412,1070
559_17,Milon,,46.285862,11.479729,1070
560_17,Masi-Campo Sportivo,,46.283459,11.480809,1070
561_17,Masi-Piccolo Bar,,46.283360,11.483310,1070
562_17,Masi di Cavalese,,46.283280,11.485357,1070
563_17,Masi-Via Chiesa Civ.118,,46.284431,11.489109,1070
564_17,Marco di Cavalese,,46.290351,11.476383,1070
566_17,Carano-Via Giovanelli 11,,46.292292,11.442660,1070
567_17,Carano-Municipio,,46.292221,11.440488,1070
568_17,Carano,,46.291789,11.438794,1070
569_17,Carano-Via Giovanelli,,46.289849,11.438591,1070
570_17,Carano-Garnì Belvedere,,46.287392,11.435856,1070
572_17,Villaggio Veronza-Bv.Pizzeria,,46.287843,11.428652,1152
574_17,Villaggio Veronza-Via Pale,,46.288769,11.431450,1152
575_17,V.Veronza-H.Veronza,,46.289865,11.433202,1152
578_17,Trento-Via Valsugana,,46.068327,11.136287,0001
579_17,Ponte Alto,,46.073787,11.150439,4010
580_17,Pinè Bivio,,46.081905,11.194970,1100
581_17,Sille,,46.086063,11.202932,1100
582_17,Madrano-Belvedere,,46.084668,11.210388,4022
584_17,Madrano,,46.085924,11.214313,4022
585_17,Madrano-Via Della Vizza,,46.091338,11.212180,4022
586_17,Nogare',,46.103925,11.211299,4023
587_17,S.Mauro-Bivio,,46.116607,11.222363,4024
588_17,Tressilla,,46.128796,11.237227,4024
589_17,Baselga P.-Municipio,,46.130017,11.243841,4025
590_17,Baselga di Pine'-Lago,,46.135502,11.249837,4025
591_17,Sternigo Bivio,,46.141638,11.257922,4032
592_17,Rizzolaga,,46.146547,11.264079,4043
593_17,Campolongo,,46.149594,11.269501,4044
594_17,Piazze Bivio,,46.155593,11.278561,4045
595_17,Piazze di Bedollo,,46.155636,11.288077,4045
596_17,Castellani-Regnana Bivio,,46.159769,11.298666,4046
597_17,Centrale di Bedollo,,46.160828,11.302262,4046
598_17,Bedollo,,46.164985,11.301342,4050
599_17,Bedollo Bivio,,46.170023,11.312441,4050
600_17,Bedollo Villaggio,,46.172909,11.317053,4050
601_17,Brusago-Via Verdi,,46.175772,11.321442,4060
602_17,Brusago,,46.182123,11.325860,4060
603_17,Brusago-Civ. 4,,46.186573,11.329595,4060
604_17,Brusago-Maso Gabart,,46.194274,11.327788,4060
605_17,Sette Fontane Bivio,,46.199008,11.327741,1141
606_17,Sveseri,,46.206441,11.323666,1141
607_17,Bedollo,,46.164986,11.301527,4050
608_17,Piazze di Bedollo,,46.155858,11.287334,4045
609_17,Campolongo,,46.149606,11.269113,4044
610_17,Pinè Bivio,,46.081958,11.196441,1100
611_17,Ponte Alto,,46.073949,11.150317,4010
612_17,Trento-Port'aquila,,46.069905,11.128513,0001
613_17,Trento-Via Perini,,46.060824,11.124153,0001
615_17,Civezzano-Quadrivio,,46.090068,11.185168,1100
616_17,Civezzano,,46.091869,11.183174,1100
617_17,Cirè-Superstrada,,46.077733,11.204086,4080
618_17,Torchio,,46.090705,11.197409,1001
619_17,Cogatti,,46.093519,11.196416,1001
620_17,Seregnano,,46.094472,11.200444,1001
621_17,Roverè,,46.090452,11.193247,1103
622_17,Bampi Bivio,,46.093747,11.190641,1103
623_17,Barbaniga,,46.101736,11.186340,1098
624_17,S.Agnese,,46.106347,11.183849,1105
625_17,S.Agnese-Difr. Al Civ. 64,,46.106519,11.186159,1105
626_17,Mazzanigo,,46.103635,11.189195,1105
627_17,Penedallo-Difr. Al Civ. 1,,46.102875,11.191745,1105
628_17,Penedallo,,46.101014,11.192553,1105
629_17,Bosco di Civezzano,,46.111066,11.170991,1106
630_17,Bosco-Loc. Canova,,46.113877,11.175541,1106
632_17,Torchio-S.P. 71,,46.091408,11.198343,1001
633_17,Valle Fornace,,46.111868,11.210363,1110
634_17,Fornace Bivio,,46.119112,11.216117,1111
636_17,Fornace,,46.118058,11.208113,1111
637_17,Fornace-Via Campogrande 5,,46.120699,11.209196,1111
638_17,S.Stefano,,46.128531,11.212040,1111
639_17,Fornace-Maso Donati,,46.120439,11.216456,1111
640_17,Lases,,46.143536,11.218874,1112
641_17,Albiano-Via Roma Civ.35,,46.143814,11.198966,1112
642_17,Albiano,,46.144616,11.193779,1112
643_17,Albiano-Via S.Antonio Civ.54,,46.146254,11.190465,1112
644_17,Albiano-Via S.Antonio Civ 90,,46.148464,11.187406,1112
646_17,Lases-Civ. 30,,46.144611,11.219172,1112
647_17,Lases-Loc. Ronc Del Mela,,46.149542,11.221571,1112
648_17,Lona-Via Provinciale,,46.156073,11.230504,1114
649_17,Lona,,46.160390,11.234805,1114
650_17,Lona-Loc. Piazzole,,46.162898,11.240964,1114
651_17,Sevignano,,46.170787,11.247119,1115
652_17,Piazzo di Segonzano Bivio,,46.180041,11.257966,1115
653_17,Scancio di Segonzano,,46.187468,11.258374,1118
654_17,Scancio di Segonzano-Snack Bar,,46.191890,11.259595,1118
655_17,Scancio di Segonzano Mad.Aiuto,,46.196166,11.258614,1118
656_17,Gaggio/Gresta Bivio,,46.207792,11.286819,1120
657_17,Valcava Bivio,,46.217867,11.305176,1137
658_17,Sover-Bar Vittoria,,46.221404,11.314764,1122
660_17,Sover-Loc. Mezauno,,46.231131,11.318876,1122
661_17,Piscine,,46.239914,11.324720,1126
662_17,Piscine-Loc. Grava,,46.246752,11.332537,1126
664_17,Pradel,,46.260328,11.355420,1136
665_17,Loc. Ronco,,46.260433,11.384836,1140
666_17,Loc. Melae,,46.263127,11.397791,1140
667_17,Stramentizzo-Bivio,,46.266408,11.406559,1088
669_17,Pradel,,46.262398,11.355420,1136
670_17,Scancio di Segonzano,,46.191607,11.258893,1118
671_17,Lases-Distributore Esso,,46.150438,11.222695,1112
672_17,Lases-Pesa,,46.143739,11.218683,1112
673_17,Pergine V.,,46.061248,11.237033,4100
675_17,Pergine-Via Baratieri,,46.063947,11.242777,4100
676_17,Pergine-Distr. Tamoil,,46.065170,11.247430,4100
677_17,Zivignago,,46.067276,11.252921,4111
678_17,Zivignago-Cons.S.Orsola,,46.070153,11.257161,4111
679_17,Canezza-Maso Sleifer,,46.076276,11.269737,4112
682_17,Canezza,,46.076974,11.274491,4112
683_17,Canezza-Dif. Al Sole,,46.080149,11.275946,4112
684_17,Canezza-Maso Dràzeri,,46.084557,11.277669,4112
685_17,Viarago-Bivio,,46.086386,11.277786,4122
686_17,Mala-Loc.Agnoletti,,46.088686,11.279793,4122
687_17,Mala,,46.090560,11.281513,4122
688_17,S.Orsola-Loc.Mantovani,,46.095743,11.289216,4118
689_17,Stefani,,46.098590,11.294205,4118
690_17,S.Orsola-Loc.Bertoldi,,46.102573,11.298243,4123
691_17,S.Orsola,,46.107693,11.301880,4123
693_17,S.Orsola-Loc.Donadi,,46.111674,11.306197,4123
694_17,Bagni Terme di S.Orsola,,46.113764,11.307889,4123
695_17,S.Orsola-Loc. Doss Martin,,46.114670,11.307600,4123
696_17,Marcheli-Bivio Borti E Cont,,46.117554,11.310066,4125
697_17,Fontanari-Maso Marcheli,,46.119434,11.313238,4125
698_17,Fontanari,,46.121169,11.316456,4125
699_17,Palù Del F.-Redebus,,46.130238,11.340914,4126
700_17,Palù Del F.-Loc. Sigismondi,,46.129804,11.344495,4126
701_17,Palù Del F.-Hotel Lagorai,,46.129512,11.348876,4126
702_17,Palu' Del Fersina,,46.129731,11.352867,4126
703_17,S.Orsola,,46.107831,11.302005,4123
708_17,Moena-Hotel Campagnola,,46.374003,11.665009,1250
709_17,Alpe Lusia,,46.367804,11.686058,1251
710_17,Fango,,46.368794,11.728398,1256
711_17,Fango-Alb. Negritella,,46.374785,11.751966,1256
712_17,P.So S.Pellegrino-Segg.Cost.,,46.378743,11.784393,1253
713_17,Passo S.Pellegrino-Ht.Arnika,,46.378138,11.789632,1253
714_17,P.So S.Pellegrino-Chiesetta,,46.378321,11.793369,1253
715_17,P.So S.Pellegrino-Fun.C.Mar.,,46.379108,11.802051,1253
716_17,P.So S.Pellegrino-B. V.Freda,,46.378808,11.813507,1253
717_17,Zingari,,46.376208,11.820593,1254
718_17,Falcade Alto,,46.355341,11.858411,1255
719_17,Falcade-Chiesa,,46.354314,11.861698,1255
720_17,Falcade-Via Serafini,,46.355060,11.866761,1255
721_17,Falcade,,46.358372,11.872868,1255
722_17,Trento-Off.Conotter,,46.076776,11.100106,0001
723_17,Trento-Via Brescia 4,,46.070536,11.111496,0001
724_17,Montevideo,,46.080369,11.098522,0001
725_17,Cadine,,46.088572,11.064986,2010
726_17,Terlago Bivio,,46.091545,11.055126,2030
727_17,Vigolo Baselga-Paese,,46.081449,11.044965,2030
728_17,Vigolo Baselga-Pallonc.Rosso,,46.077626,11.032474,2030
729_17,Vezzano,,46.078435,11.000157,2040
731_17,Vezzano-Bivio Val di Cavedine,,46.071568,10.994704,2040
732_17,Padergnone-Sulla Sp,,46.063516,10.993243,2090
733_17,Padergnone-Loc.Barbazan,,46.060053,10.990529,2090
734_17,Padergnone,,46.062089,10.988852,2090
735_17,Padergnone-Case Enel,,46.058818,10.982886,2090
736_17,Due Laghi-Hotel Miralaghi,,46.058851,10.979182,2101
737_17,Castel Toblino,,46.056347,10.965437,2110
739_17,Sarche-Maso Caffaro,,46.046073,10.945217,2120
740_17,Sarche-Bar Miravalle,,46.044456,10.944797,2120
741_17,Comano Terme,,46.041193,10.881910,2180
742_17,Ponte Arche-Autost.,,46.035587,10.873617,2180
743_17,Ponte Arche-Bel Sit,,46.036219,10.864709,2180
744_17,Ponte Ragoli-Sp34 Dir. Ragoli,,46.050484,10.785337,2240
746_17,Zuclo Ss237 "Superm. Lidl",,46.040152,10.748601,2270
748_17,Ponte Ragoli-Ss.237-Dir. Saone,,46.049764,10.785625,2240
749_17,Ragoli-Pez,,46.051079,10.781306,2240
751_17,Preore,,46.046154,10.758110,2240
752_17,Preore-Loc.Signor,,46.044621,10.752413,2240
754_17,Zuclo Bivio-Segheria Tonello,,46.038745,10.744295,2270
755_17,Bolbeno-Bivio,,46.033970,10.735274,2270
756_17,Tione-Bar Arnò,,46.034864,10.732481,2290
757_17,Tione-Autostazione,,46.033132,10.726114,2290
758_17,Tione-Via Circonvallaz.,,46.040222,10.727473,2290
759_17,Verdesina Bivio,,46.056997,10.716268,2291
760_17,Villa Rendena,,46.062476,10.712201,2340
761_17,Iavrè,,46.068036,10.711738,2350
762_17,Iavrè-Artigianato,,46.070709,10.713789,2350
763_17,Darè,,46.075923,10.717568,2360
764_17,Vigo Rendena,,46.078733,10.718957,2370
765_17,Vigo Rendena-Biv.Val S.Val.,,46.082037,10.722143,2370
766_17,Pelugo,,46.087322,10.723226,2380
767_17,Pelugo-Artigianato,,46.088071,10.725461,2380
768_17,Borzago,,46.098857,10.734738,2390
769_17,Spiazzo Rendena,,46.103133,10.737692,2400
772_17,Strembo-Bivio Bocenago,,46.118184,10.752834,2420
773_17,Strembo,,46.120371,10.751922,2420
774_17,Caderzone,,46.128901,10.756508,2430
775_17,Caderzone-Off. Alfa Romeo,,46.131787,10.764304,2430
776_17,Giustino,,46.145927,10.768305,2440
777_17,Giustino-Hotell Royal,,46.153692,10.766169,2440
778_17,Pinzolo,,46.157164,10.765988,2450
779_17,Pinzolo-Funivie,,46.163441,10.765458,2450
780_17,Carisolo,,46.169320,10.764149,2460
781_17,Carisolo-Pinemonte Basso,,46.188013,10.772362,2460
782_17,S.Antonio di M.-Camping Faè,,46.185864,10.779174,2470
783_17,S.Antonio di M.-Biv.V.Nambr.,,46.188184,10.777525,2470
784_17,S.Antonio di M.-Vigili Fuoco,,46.190053,10.785814,2470
785_17,S.Antonio di Mavignola,,46.191370,10.789123,2470
786_17,S.Antonio di M.-Rio Fornas,,46.193908,10.795957,2470
787_17,S.Antonio di M.-Rio V.Rastrel,,46.195343,10.795758,2470
788_17,S.Antonio di M.-Palù,,46.197373,10.797107,2470
789_17,S.Antonio di M.-Mumble Fratè,,46.200599,10.804013,2470
790_17,Madonna di C.-Loc.Fontanella,,46.208856,10.820246,0957
791_17,Madonna di C.-H. Lorenzetti,,46.214137,10.822365,0957
792_17,Madonna di C.-Hotel Betulla,,46.220872,10.822457,0957
793_17,Madonna di Campiglio-Vvff,,46.224540,10.825264,0957
794_17,Madonna di C.-Laghetto,,46.226019,10.827868,0957
795_17,Madonna di Campiglio,,46.230343,10.827885,0957
796_17,Madonna di C.-Fun. Pradalago,,46.234031,10.826079,0957
797_17,Madonna di C.-Hotel Dahu,,46.234409,10.823829,0957
798_17,M.Campiglio-P.Brenta Alta,,46.231942,10.826145,0957
799_17,Madonna di C.-Biv. V.Nambino,,46.235465,10.826428,0957
800_17,Funivia Grostè,,46.236312,10.835363,0958
801_17,Campo Carlomagno,,46.242978,10.840032,0958
803_17,Campo Carlomagno,,46.243225,10.840253,0958
804_17,Funivia Grostè,,46.236409,10.835464,0958
805_17,S.Massenza,,46.065484,10.980462,2101
807_17,Madonna di C.-Loc.Fontanella,,46.208587,10.819861,0957
808_17,S.Antonio di M.-Mumble Fratè,,46.200492,10.803664,2470
812_17,S.Antonio di M.-Biv.V.Nambr.,,46.188256,10.778149,2470
813_17,S.Antonio di M.-Camping Faè,,46.185659,10.778454,2470
814_17,Carisolo,,46.169099,10.763891,2460
815_17,Pinzolo-Funivie,,46.163723,10.765273,2450
816_17,Giustino-Hotel Royal,,46.153492,10.766254,2440
818_17,Spiazzo Rend.-Conc.Cozzio,,46.110613,10.747633,2400
819_17,Mortaso,,46.106772,10.739864,2400
820_17,Spiazzo Rendena,,46.102588,10.736821,2400
821_17,Borzago,,46.098884,10.734790,2390
823_17,Vigo Rendena-Biv.Val S.Val.,,46.082368,10.722321,2370
824_17,Vigo Rendena,,46.078901,10.719153,2370
825_17,Darè,,46.075878,10.717528,2360
826_17,Iavrè,,46.068841,10.711465,2350
827_17,Verdesina Bivio,,46.056766,10.716638,2291
829_17,Tione-Via Circonvallaz.,,46.040014,10.727518,2290
830_17,Terlago,,46.097757,11.044740,2021
831_17,Covelo Bivio,,46.098388,11.022717,2023
832_17,Covelo-Via N.Pooli,,46.096643,11.018074,2023
833_17,Covelo,,46.098290,11.019005,2023
834_17,Maso Ariol,,46.106105,11.026542,2023
836_17,Monte Terlago-P.Zza,,46.109656,11.037895,2023
837_17,Monte Terlago Vallene,,46.109037,11.042854,2023
838_17,Monte Terlago-H. 2 Laghi,,46.112079,11.046119,2023
839_17,Cadine,,46.088855,11.064513,2010
841_17,Trento-Maso Pedrotti,,46.075560,11.098223,0001
842_17,Trento-Loc. S.Antonio,,46.069885,11.100439,0001
843_17,Sardagna-Maso Scala,,46.069871,11.097749,2620
844_17,Sardagna,,46.064848,11.097290,2620
845_17,Sardagna-Tornante Sp 85,,46.071418,11.086984,2620
847_17,Candriai-Bar Erika,,46.063071,11.082260,2630
848_17,Centro A.Degasperi,,46.059629,11.077756,2631
849_17,Vaneze-Bivio Prà Della Fava,,46.056968,11.076349,2640
850_17,Bolbeno-Bivio,,46.034112,10.735532,2270
853_17,Preore-Loc. Signor,,46.044911,10.752913,2240
854_17,Ragoli,,46.050989,10.776581,2240
855_17,Ragoli-Pez,,46.050940,10.780061,2240
856_17,Zuclo Morace Antichità,,46.041992,10.753635,2240
857_17,Saone,,46.042589,10.766915,2240
858_17,Ponte Ragoli-Ss.237 Dir.Sarche,,46.050263,10.786769,2240
859_17,Ponte Arche-Bel Sit,,46.036139,10.864628,2180
861_17,Comano Terme,,46.041141,10.882865,2180
863_17,Padergnone,,46.061989,10.989465,2090
865_17,Vigolo Baselga-Ss45,,46.080844,11.043572,2030
868_17,Tione-Bar Arno',,46.034257,10.733257,2290
869_17,Sarche-Cassa Rurale,,46.046415,10.952067,2120
870_17,Sarche-Centro Comm.,,46.046442,10.952107,2120
871_17,Vaneze,,46.051918,11.071938,2640
872_17,Vaneze-Sp.85,,46.051411,11.069391,2640
873_17,Vaneze-Norge,,46.049242,11.066660,2645
874_17,Vaneze-Baita Montesel,,46.045839,11.065184,2645
875_17,Vaneze-Ex Snack Bar,,46.044388,11.060838,2650
877_17,Viote,,46.021402,11.041172,2660
878_17,Vason,,46.039098,11.057695,2650
879_17,Vaneze-Baita Montesel,,46.046329,11.065049,2645
880_17,Candriai,,46.066037,11.084466,2630
884_17,Zuclo,,46.034160,10.747301,2270
885_17,Bolbeno,,46.032567,10.737551,2270
887_17,Coltura,,46.058271,10.793851,2240
889_17,Preore Bivio Montagne,,46.046119,10.756556,2240
890_17,Montagne Cort,,46.050723,10.753627,2280
891_17,Montagne Larzana,,46.058445,10.751304,2280
892_17,Montagne Binio,,46.065609,10.755140,2280
894_17,Zuclo,,46.034087,10.747095,2270
895_17,Pinzolo,,46.157196,10.764400,2450
896_17,Fraveggio Bivio,,46.078617,10.993865,2040
897_17,Lon,,46.084191,10.992669,2040
898_17,Ciago,,46.089243,11.004842,2040
899_17,Margone Bivio,,46.068390,10.972999,2045
900_17,Ranzo,,46.064110,10.942541,2045
901_17,Margone,,46.068219,10.963864,2045
903_17,Ciago-Sp. 18 Civ.1,,46.089161,11.008008,2040
905_17,Margone Bivio,,46.068021,10.973815,2045
906_17,Lon-Rist. Fior di Roccia,,46.084858,10.991606,2040
909_17,Borgo V.-C.Intermodale,,46.052460,11.463496,4400
910_17,Borgo Vals.-Ospedale,,46.056441,11.464242,4400
911_17,Borgo Vals.-Valli,,46.055483,11.469823,4400
912_17,Castelnuovo-Malerba,,46.053807,11.481145,4450
913_17,Castelnuovo,,46.052197,11.494280,4450
914_17,Strigno-Stazione Fs,,46.051474,11.514737,4449
915_17,Agnedo-Incrocio,,46.051000,11.525010,4451
916_17,Agnedo,,46.052516,11.528682,4451
917_17,Agnedo-Via Per Ospedaletto,,46.048287,11.531302,4451
918_17,Agnedo-Via Per Ospedaletto 8,,46.046836,11.542288,4451
919_17,Ospedaletto,,46.044851,11.550784,4452
920_17,Ospedaletto-Ss/F.S.,,46.041590,11.548690,4452
921_17,Ospedaletto Loc. Barricata,,46.036355,11.561032,4452
922_17,Ospedaletto-Via Pradenella,,46.033870,11.573069,4452
923_17,Tollo,,46.028363,11.587738,4453
924_17,Grigno,,46.015036,11.635237,4454
925_17,Grigno-Segheria,,46.015219,11.636698,4454
926_17,Palù di Grigno,,46.007300,11.654865,4456
927_17,Serafini,,46.004039,11.660404,4455
928_17,Belvederi di Grigno,,46.001081,11.665287,4498
929_17,Tezze-Via Masetto Vecchio 16,,45.993791,11.670273,4457
930_17,Tezze,,45.991214,11.671734,4457
931_17,Martincelli,,45.977982,11.680805,4458
932_17,Primolano-Alb.Giardino,,45.965203,11.707060,4490
933_17,Ospedaletto,,46.044687,11.550965,4452
934_17,Canezza-Bivio,,46.076785,11.275863,4112
935_17,Canezza-Loc. Molini,,46.076818,11.282744,4112
936_17,Canezza-Loc. Pinterhof,,46.078874,11.283443,4112
937_17,Frassilongo-Maso Pizzi,,46.084010,11.290375,4113
938_17,Frassilongo-Maso Molinari,,46.084562,11.291109,4113
939_17,Levico Terme-Autostazione,,46.010161,11.298858,4300
940_17,Levico T.-Via Avancini,,46.008713,11.308628,4300
941_17,Barco,,46.004584,11.335619,4310
942_17,Levico T.-Via Rovigo,,46.009118,11.308644,4300
943_17,Regnana Biv.-Dopo A.Costalta,,46.159984,11.300172,4046
944_17,Regnana-Via Redebus 9,,46.156251,11.308984,4048
945_17,Regnana,,46.154104,11.309902,4048
946_17,Borgo Vals.-Sp.40,,46.051473,11.456467,4400
947_17,Olle-Trattoria Alla Croce,,46.041590,11.460248,4410
948_17,Olle-Via Del Boaletto,,46.040761,11.465108,4410
949_17,Olle,,46.040808,11.464163,4410
950_17,Pergine V.-Via Rosmini 19,,46.060945,11.232468,4100
951_17,Costasavina,,46.058110,11.213982,4137
952_17,Fornaci di Roncogno,,46.064069,11.224112,4137
953_17,Roncogno,,46.069354,11.207320,4137
954_17,Maso Colpi Bivio Via Tiglio,,45.997669,11.318198,4320
955_17,Maso Colpi Bivio,,45.995463,11.319324,4320
956_17,S.Giuliana-Civ.41,,45.993090,11.311893,4320
957_17,S.Giuliana,,45.991575,11.315123,4320
958_17,S.Mauro,,46.125272,11.223917,4030
959_17,Valcava,,46.206286,11.311970,1121
960_17,Svaldi,,46.170079,11.301642,4061
961_17,Ponte Fersina,,46.069816,11.223412,4100
962_17,Pergine V.-Viale Dante,,46.065908,11.228116,4100
963_17,Masetti-Strada Provinciale,,46.052647,11.249267,4280
965_17,Levico T.-Alb.Miralago,,46.014468,11.294593,4300
966_17,Levico Terme-Cimitero,,46.008855,11.316263,4300
967_17,Levico Terme-Sp.228,,46.016487,11.330915,4300
968_17,Campiello di Levico,,46.019576,11.356679,4350
969_17,Novaledo,,46.022213,11.366074,4360
970_17,Novaledo-Via Roati,,46.027411,11.374066,4360
971_17,Novaledo-Loc.Campregher,,46.029340,11.382792,4361
972_17,Marter-Loc.Angeli,,46.030565,11.388362,4370
973_17,Marter-Autoespresso,,46.034103,11.394317,4370
974_17,Roncegno-Via Ciocca,,46.044667,11.406879,4380
975_17,Roncegno Terme,,46.049671,11.411174,4380
976_17,Roncegno-Centro Polisportivo,,46.049008,11.421467,4380
977_17,Borgo Vals.-Staz. Fs,,46.051441,11.454415,4400
978_17,Scurelle,,46.065058,11.506674,4500
979_17,Scurelle-Via 15 Agosto,,46.062960,11.514492,4500
980_17,Villa,,46.057745,11.519774,4449
981_17,Strigno-Bivio Ivano Fracena,,46.061558,11.523764,4511
983_17,Tomaselli,,46.068812,11.528258,4530
984_17,Tomaselli-Bivio Latini,,46.071154,11.536719,4530
985_17,Bieno-Via Bettega,,46.075320,11.540816,4540
986_17,Bieno-Via Lusumina,,46.084130,11.550569,4540
987_17,Bieno,,46.080268,11.553834,4540
988_17,Bieno-Via Roma,,46.081287,11.558990,4540
989_17,Pradellano,,46.079566,11.577673,4541
990_17,Pradellano-Al Lago,,46.076086,11.588456,4541
991_17,Pieve Tesino-Passo Forcella,,46.070956,11.592248,4550
992_17,Pieve Tesino-Case Itea,,46.068561,11.605522,4550
993_17,Cinte Tesino Bivio,,46.066533,11.607625,4550
994_17,Cinte Tesino-Stab.Bailo,,46.063234,11.609771,4550
996_17,Cinte Tesino,,46.057645,11.613706,4550
998_17,Pieve Tesino,,46.068073,11.609935,4550
999_17,Castello T.-Loc. Molini,,46.070757,11.622036,4570
1000_17,Castello T.-Ip,,46.068606,11.625943,4570
1001_17,Castello T.-Via Baili,,46.064290,11.628880,4570
1002_17,Castello Tesino,,46.064873,11.633294,4570
1003_17,Pergine V.-Bivio Susà,,46.056775,11.236747,4100
1004_17,Pergine Via Al Lago,,46.054929,11.235858,4100
1005_17,S.Cristoforo Al Lago,,46.038778,11.233503,4200
1006_17,Valcanover,,46.026716,11.229254,4250
1007_17,Valcanover-Pizz.Happy Days,,46.016696,11.233983,4250
1008_17,Calceranica-Bar Floris,,46.006556,11.241153,4260
1010_17,Caldonazzo-Via Marconi,,45.994597,11.256980,4270
1011_17,Caldonazzo,,45.993374,11.260641,4270
1012_17,Caldonazzo-Via Roma,,45.994526,11.270753,4270
1013_17,Caldonazzo-Sp. Civ.85/B,,45.998136,11.279595,4270
1014_17,Levico T.-Rist. Brenta,,46.006387,11.291849,4300
1015_17,Levico T.-Rist.Brenta,,46.006543,11.291893,4300
1016_17,Caldonazzo,,45.993610,11.260696,4270
1017_17,Caldonazzo-V.Marconi,,45.995308,11.256569,4270
1018_17,Calceranica Al Lago,,46.004091,11.243365,4260
1019_17,Valcanover,,46.027390,11.229319,4250
1020_17,S.Cristoforo Al Lago,,46.038968,11.233977,4200
1021_17,Pergine V.-Via Al Lago Civ 17,,46.053382,11.235382,4100
1022_17,S.Cristoforo-Bivio Darsena,,46.039889,11.239810,4200
1023_17,Ischia-Alle Terrazze,,46.012667,11.261720,4200
1024_17,Brenta Bivio,,46.004684,11.274362,4292
1025_17,Brenta Bivio,,46.004646,11.274916,4292
1026_17,Ischia-Alle Terrazze,,46.014088,11.260421,4200
1028_17,Pergine V.,,46.061538,11.237586,4100
1029_17,Roveda Bivio,,46.086443,11.293810,4113
1030_17,Frassilongo,,46.089502,11.297433,4140
1031_17,Frassilongo-Maso Doss Hecchi,,46.092488,11.302722,4140
1032_17,Frassilongo-Maso Puech,,46.094064,11.304207,4140
1033_17,Fierozzo-Loc. Gaigheri,,46.096613,11.311683,4141
1034_17,S.Francesco,,46.100363,11.310541,4141
1035_17,S.Felice Fierozzo,,46.111159,11.318516,4142
1037_17,Pergine V.-Via Regensburger,,46.064432,11.242028,4100
1038_17,Pergine V.-V.Regensb/Bellini,,46.067887,11.239690,4100
1039_17,Casalino-Stadio Del Ghiaccio,,46.072183,11.235642,4100
1040_17,Casalino,,46.073686,11.230356,4132
1041_17,Vigalzano,,46.076931,11.228473,4133
1042_17,Vigalzano-Via Del Sgualdi,,46.079790,11.226832,4133
1043_17,Canzolino-Via Pianezze,,46.081871,11.222569,4134
1044_17,Canzolino-Scuole,,46.083822,11.219086,4134
1046_17,Madrano-Alb.Madrano,,46.085560,11.214964,4022
1048_17,S.Martino di Castrozza,,46.262152,11.804287,0961
1049_17,S.Martino di C.-H.Cristallo,,46.258679,11.802423,0961
1050_17,Impianti Tognola,,46.254704,11.800066,5180
1051_17,Valmesta,,46.227085,11.808750,5170
1052_17,Siror-Birr.Val Serena,,46.189864,11.825319,5160
1053_17,Siror,,46.187088,11.830580,5160
1054_17,Tressane,,46.179307,11.832565,5140
1055_17,Ponte Mirabello,,46.177663,11.831366,5140
1056_17,Fiera di Primiero,,46.174311,11.828603,5140
1057_17,Fiera di P.-Sup.Trentini,,46.171606,11.824472,5140
1058_17,Sorive,,46.160368,11.819909,5135
1059_17,Mezzano-Albergo Salgetti,,46.156242,11.814595,5130
1060_17,Mezzano,,46.154591,11.805976,5130
1061_17,Imer--Sup. Schlecker,,46.151919,11.800797,5110
1062_17,Imer,,46.150662,11.794431,5110
1063_17,Masi di Imer,,46.145284,11.785768,5111
1064_17,S.Silvestro,,46.131439,11.769023,5111
1065_17,Pontet,,46.106741,11.774054,5100
1066_17,Port,,46.092965,11.761661,5090
1067_17,Val Rosna,,46.084136,11.764421,5090
1069_17,Ponte Oltra,,46.060534,11.763205,5070
1070_17,Fontane di Lamon,,46.036416,11.761574,5060
1071_17,Ponte Serra,,46.029632,11.762566,5050
1072_17,Fonzaso-Pedesalto,,46.021116,11.781461,5040
1073_17,Fonzaso,,46.016660,11.802563,5040
1074_17,Arten,,46.008258,11.831188,5030
1076_17,Feltre-Gel. La Zuecca,,46.019048,11.893374,5010
1078_17,Feltre-Ospedale,,46.021853,11.908009,5010
1079_17,Feltre-Staz. Fs,,46.012749,11.910851,5010
1080_17,Feltre-Staz. Fs,,46.012491,11.910304,5010
1081_17,S.Lucia,,46.003297,11.840661,5020
1082_17,Arten,,46.008708,11.831534,5030
1083_17,Ponte Oltra,,46.060441,11.762556,5070
1085_17,Masi di Imer,,46.145367,11.786083,5111
1087_17,Imer,,46.150561,11.794517,5110
1088_17,Mezzano,,46.154450,11.806214,5130
1089_17,Mezzano-Alb.Salgetti,,46.156398,11.815198,5130
1090_17,Siror,,46.186854,11.830376,5160
1091_17,Impianti Tognola,,46.254564,11.800643,5180
1092_17,S.Martino di C.-H.Cristallo,,46.258584,11.802600,0961
1093_17,Canal S.Bovo,,46.154983,11.733015,5117
1094_17,Canal S.Bovo-Somprà,,46.159542,11.727580,5117
1095_17,Pianazzi Bivio,,46.162501,11.722351,5117
1096_17,Ronco Fosse,,46.153340,11.719645,5118
1097_17,Ronco-Bivio Pugnai,,46.149553,11.719951,5118
1098_17,Ronco-Bivio Gasperoi,,46.141878,11.717190,5119
1099_17,Ronco Chiesa,,46.141561,11.714637,5119
1102_17,Caldonazzo-Staz. Fs,,45.997136,11.264702,4270
1103_17,Levico Terme-Staz. Fs,,46.005879,11.305009,4300
1107_17,Susa',,46.051111,11.223539,4130
1108_17,Trento-C.So Tre Novembre,,46.062416,11.123713,0001
1109_17,Trento-Viale Verona,,46.056531,11.128456,0001
1110_17,Trento-S.Bartolameo,,46.051661,11.129945,0001
1111_17,Trento Viale Verona Big Center,,46.045612,11.130966,0001
1112_17,Trento-Man,,46.036737,11.130338,0001
1113_17,Mattarello-Loc.Ronchi,,46.017259,11.132495,3010
1114_17,Mattarello,,46.005283,11.126502,3010
1115_17,Acquaviva,,45.989952,11.122780,3020
1116_17,Acquaviva-Pizzeria,,45.980673,11.116452,3020
1117_17,Besenello-Ferm. Nord,,45.945968,11.106163,3030
1118_17,Besenello,,45.942137,11.109389,3030
1119_17,Besenello-Ferm. Sud,,45.937109,11.110678,3030
1120_17,Calliano,,45.934198,11.095733,3040
1121_17,Calliano-Grafiche Manfrini,,45.928835,11.093172,3040
1122_17,Castelpietra,,45.922967,11.092189,3055
1123_17,Volano,,45.917920,11.063780,3070
1124_17,S.Ilario,,45.908274,11.040552,3100
1125_17,Rovereto-V.Le Trento,,45.900157,11.041998,3100
1126_17,Rovereto-Via Manzoni,,45.892473,11.038426,3100
1128_17,Rovereto-Difr.Rist.Cristina,,45.881366,11.031860,3100
1129_17,Lizzanella,,45.874533,11.031686,3100
1130_17,Lizzanella-Bar Verona,,45.872773,11.024339,3100
1131_17,Centro Commerciale Millenium,,45.868790,11.014188,3100
1132_17,Mori-Stazione F.S.,,45.861908,11.000683,3542
1133_17,Ravazzone di Mori,,45.860092,10.991291,3312
1134_17,Molina di Mori,,45.855210,10.985631,3320
1135_17,Mori-Bar Centrale,,45.851605,10.978781,3310
1136_17,Mori-Bivio Sud,,45.853367,10.967981,3310
1137_17,Mori-Difr.Discoteca Fanum,,45.855035,10.946812,3460
1138_17,Loppio,,45.855726,10.929794,3460
1139_17,Passo S.Giovanni,,45.874042,10.906461,3465
1140_17,Nago,,45.878476,10.890669,3470
1141_17,Torbole,,45.871053,10.875512,3480
1142_17,Linfano Bivio,,45.875583,10.871503,3480
1143_17,Riva V.Rovereto H.Brione,,45.880111,10.856036,0960
1144_17,Riva V.Rovereto H.Du Lac,,45.883055,10.852641,0960
1145_17,Riva Via D.Chiesa,,45.888706,10.846075,0960
1146_17,Riva Del G.-Autostaz.,,45.892289,10.844892,0960
1147_17,Riva D/Garda Rione Degasperi,,45.895383,10.850061,0960
1148_17,Riva Del G. C.Comm. 2000,,45.896469,10.851309,0960
1149_17,Riva Del G. S.Nazzaro,,45.899783,10.855660,0960
1150_17,S.Tomaso-Direz. Arco,,45.902286,10.860011,3510
1151_17,Arco S.Caterina Eurospar,,45.904792,10.864220,3520
1152_17,Arco Bivio Sp 36 Grazie,,45.906486,10.866327,3520
1153_17,Arco Via S.Caterina,,45.912254,10.875211,3520
1154_17,Arco-Autostaz.,,45.916113,10.883001,3520
1155_17,Arco Piazza Italia,,45.919566,10.891333,3520
1156_17,Caneve,,45.916735,10.892204,3520
1157_17,Bolognano Bivio,,45.910903,10.900309,3520
1158_17,Bolognano,,45.912063,10.901986,3520
1159_17,Bolognano Via Asilo,,45.914058,10.902196,3520
1160_17,Massone Case Itea,,45.921813,10.899108,3520
1161_17,Massone,,45.924014,10.898306,3520
1162_17,S.Martino di Arco,,45.924460,10.894775,3520
1163_17,Arco Svizzera,,45.921461,10.891616,3520
1164_17,Arco Bivio Sp 36 Grazie,,45.906976,10.867143,3520
1165_17,Arco S.Caterina Eurospar,,45.904663,10.863891,3520
1166_17,S.Tomaso-Direz. Riva,,45.902908,10.861114,3510
1167_17,Riva Del G. S.Nazzaro,,45.899422,10.855184,0960
1168_17,Riva Del G. C.Comm. 2000,,45.897765,10.852435,0960
1169_17,Riva D/Garda Rione Degasperi,,45.894834,10.849462,0960
1170_17,Riva D/Garda Viale Martiri,,45.887604,10.844054,0960
1171_17,Nago,,45.878302,10.890542,3470
1172_17,Loppio,,45.855490,10.930108,3460
1173_17,Mori-Bar Centrale,,45.851608,10.978989,3310
1174_17,Molina di Mori,,45.855097,10.985453,3320
1175_17,Ravazzone di Mori,,45.858717,10.990649,3312
1177_17,Lizzanella-Bar Verona,,45.872694,11.024273,3100
1178_17,Lizzanella,,45.874361,11.031758,3100
1179_17,Rovereto-Rist.Cristina,,45.881389,11.032067,3100
1180_17,Rovereto-Staz.F.S.,,45.890243,11.034030,3100
1181_17,Rovereto-V.Le Trento,,45.900353,11.042123,3100
1182_17,S.Ilario,,45.908367,11.040784,3100
1183_17,Volano,,45.917749,11.063577,3070
1184_17,Calliano,,45.934013,11.096002,3040
1185_17,Besenello,,45.942592,11.108641,3030
1186_17,Besenello-Ferm. Nord,,45.946015,11.106023,3030
1187_17,Mattarello,,46.005251,11.126637,3010
1188_17,Trento-Man,,46.037835,11.130486,0001
1189_17,Trento-Ponte Cavaleggeri,,46.059353,11.126297,0001
1190_17,Trento-Via Rosmini,,46.068218,11.118796,0001
1191_17,Tonadico-Lisiera,,46.181183,11.841123,5140
1192_17,Tonadico-Centr.Castelpietra,,46.184630,11.845447,5140
1193_17,Bivio Val Canali,,46.189613,11.861092,5154
1194_17,Baita Del Vecio,,46.185473,11.873973,5142
1195_17,Passo Cereda,,46.192986,11.905223,5143
1196_17,Mis,,46.207137,11.927153,5144
1197_17,Mis di Mezzo,,46.205713,11.928996,5144
1198_17,Mis di Sotto,,46.203515,11.930098,5144
1199_17,Sagron,,46.195002,11.943357,5145
1200_17,Bellamonte-Albergo Zaluna,,46.314589,11.647139,1221
1201_17,Bellamonte,,46.312911,11.662986,1221
1202_17,Bellamonte-H.Torretta,,46.311058,11.674500,1221
1203_17,Lago Forte Buso,,46.306909,11.701286,1222
1205_17,Paneveggio Centro Forestale,,46.309541,11.748096,1223
1206_17,Bivio Malga Juribello,,46.300119,11.763517,1224
1207_17,Malga Rolle,,46.295816,11.776544,1224
1208_17,Passo Rolle,,46.296305,11.787139,1224
1209_17,P.Sso Rolle-Segg. Segantini,,46.297907,11.788999,1224
1210_17,P.Sso Rolle-Malga Fosse,,46.289455,11.798580,1224
1211_17,S.Martino di C.-H. S.Martino,,46.266379,11.802413,0961
1212_17,S.Martino di C.-Im.Col Verde,,46.264917,11.804217,0961
1213_17,S.Martino di C.-H.Belvedere,,46.264314,11.801833,0961
1218_17,Paneveggio,,46.306657,11.739067,1223
1224_17,Caoria-Ex Bar Cauriol,,46.194858,11.680894,5120
1225_17,Caoria-Ponte Valsorda,,46.197164,11.678894,5120
1226_17,Caoria,,46.198012,11.675734,5120
1227_17,Lausen,,46.149954,11.734824,5117
1229_17,Bivio Prade,,46.151486,11.741642,5115
1230_17,Berni,,46.156637,11.745893,5128
1231_17,Prade,,46.157314,11.740539,5113
1232_17,Cicona,,46.162906,11.744184,5114
1233_17,Zortea,,46.162717,11.750159,5116
1234_17,Zortea-Loc. Mureri,,46.164872,11.757456,5116
1235_17,Barbine,,46.157837,11.754333,5127
1236_17,P.Sso Gobbera-F.Mazuca,,46.150300,11.751120,5112
1237_17,Passo Gobbera,,46.148011,11.756872,5112
1238_17,Passo Gobbera,,46.147632,11.757656,5112
1239_17,Canal S.Bovo,,46.154704,11.733040,5117
1240_17,Caoria-Ponte Valsorda,,46.197181,11.678532,5120
1242_17,Cavalese-Hotel Coronelle,,46.294815,11.454263,1070
1243_17,Daiano-Parco Giochi,,46.300106,11.450123,1160
1244_17,Daiano,,46.300879,11.447872,1160
1245_17,Varena-Pizz. La Cantinetta,,46.302821,11.454024,1160
1246_17,Varena Centro-Alb. Alpino,,46.303567,11.456161,1160
1247_17,Varena,,46.305514,11.458118,1160
1248_17,Trento-Via Valsugana,,46.069120,11.136319,0001
1249_17,Cirè-Ex Statale,,46.077706,11.205959,4080
1250_17,Roveda-Maso Puech Pote,,46.074384,11.287907,4114
1251_17,Roveda-Maso Sroveri,,46.069344,11.292393,4114
1252_17,Roveda,,46.068023,11.300342,4114
1253_17,Roveda-Maso Tolleri,,46.069281,11.299101,4114
1254_17,Roveda-Maso Martinotti,,46.071815,11.304078,4114
1255_17,Roveda-Maso Kairo,,46.071543,11.298769,4114
1256_17,Kamauz-Maso Frunt,,46.073003,11.301545,4115
1257_17,Kamauz,,46.074718,11.302164,4115
1258_17,Canezza-Rist. Al Sole,,46.080110,11.275681,4112
1259_17,Borgo Vals.-Case Itea,,46.058762,11.469263,4400
1260_17,Telve,,46.070437,11.477965,4461
1261_17,Telve-Panorama,,46.070379,11.483099,4461
1262_17,Telve-Via S.Giustina,,46.072891,11.484734,4461
1264_17,Telve-Salti,,46.073963,11.480759,4461
1265_17,Ponte S.Giovanni,,46.075054,11.474240,4462
1266_17,Telve di Sopra,,46.072006,11.472214,4463
1267_17,Campestrini,,46.077688,11.456859,4465
1268_17,Torcegno-Segheria,,46.074770,11.451065,4464
1269_17,Torcegno,,46.073038,11.450420,4464
1270_17,Ronchi Valsugana,,46.072599,11.438554,4440
1271_17,Ronchi-Loc. Marchi,,46.066813,11.432584,4440
1272_17,Stauda,,46.063774,11.429672,4430
1273_17,Montebello,,46.061208,11.425914,4430
1274_17,Maso Roneri,,46.059241,11.420822,4420
1275_17,Rincheri,,46.056603,11.416641,4420
1277_17,Cinte Tesino Bivio,,46.067453,11.607539,4550
1457_17,Ora-Auer,,46.348173,11.297324,1167
1458_17,Maso Del Gobbo,,46.033816,10.947743,2124
1460_17,Isoletta,,46.009174,10.935767,2132
1461_17,Marocche-Pescicoltura,,46.002236,10.926660,2153
1462_17,Marocche,,45.998564,10.925295,2153
1463_17,Gaggiolo,,45.993660,10.926532,2154
1464_17,Centrale Fies,,45.986449,10.926882,2129
1465_17,Dro-Al Lago,,45.982597,10.925059,2129
1466_17,Dro Itea,,45.962453,10.915978,2127
1467_17,Dro,,45.961474,10.910726,2127
1468_17,Dro-Carabinieri,,45.958516,10.906523,2127
1469_17,Ceniga,,45.951387,10.900851,2128
1470_17,Ceniga Bivio Sud,,45.946609,10.902954,2128
1471_17,Arco Moletta,,45.931025,10.896185,3520
1472_17,Roncegno Chiesa,,46.049712,11.406684,4380
1474_17,S.Martino di Arco,,45.923731,10.893138,3520
1475_17,Daiano-Via Arca I,,46.300319,11.445211,1160
1476_17,Daiano-Via Arca Civ.20,,46.298112,11.444162,1160
1477_17,Carano,,46.292416,11.437238,1070
1478_17,Masi-Az. Agricola,,46.281916,11.496317,1190
1479_17,Lago di Tesero,,46.281974,11.515006,1190
1480_17,Lago-Mobilif. De Pal,,46.283985,11.521973,1190
1481_17,Tesero Bivio,,46.285506,11.523799,1190
1482_17,Daino,,46.023309,10.943759,2125
1483_17,Baselga di Pinè-Monum.,,46.130951,11.246447,4025
1484_17,Miola,,46.126782,11.246524,4025
1485_17,Miola-St. Ghiaccio,,46.125424,11.253586,4025
1486_17,Faida-Rauta,,46.112841,11.253843,4041
1487_17,Faida,,46.109689,11.251616,4041
1490_17,Cavalese-Autostaz.,,46.287912,11.463237,1070
1492_17,Canzolino,,46.083701,11.221506,4134
1493_17,Canzolino-Hotel Miralago,,46.082622,11.230442,4134
1494_17,Canzolino-Bivio Buss,,46.084555,11.230766,4134
1495_17,Riposo,,46.084493,11.236938,4020
1496_17,Montagnaga,,46.098614,11.236071,4042
1497_17,Valt,,46.106817,11.236568,4039
1498_17,Ferrari-Hotel Scoiattolo,,46.111813,11.234198,4026
1499_17,Ferrari,,46.121678,11.239945,4026
1501_17,Miola-Bivio Ferrari/Miola,,46.124923,11.243146,4025
1502_17,Mazzanigo,,46.103797,11.188919,1105
1503_17,S.Agnese,,46.106121,11.183918,1105
1507_17,Campo Lomaso,,46.024031,10.865607,2181
1508_17,Campo Lomaso Ii,,46.021898,10.866744,2181
1509_17,Vigo Lomaso,,46.013210,10.869079,2182
1510_17,Dasindo,,46.011844,10.860407,2183
1511_17,Stumiaga,,46.007007,10.849006,2184
1512_17,Fiavè-Caseificio,,46.001943,10.846004,2185
1514_17,Fiavè-Bar Aurora,,46.001174,10.840937,2185
1515_17,Torbiera,,45.992446,10.838008,2187
1516_17,Fiavè Pineta,,45.988124,10.833076,2187
1517_17,Ballino,,45.965503,10.811513,2188
1518_17,Lago di Tenno,,45.935390,10.811879,2189
1519_17,Ville Del Monte,,45.930259,10.822412,2210
1520_17,Ville Del Monte I,,45.927399,10.825673,2210
1521_17,Tenno,,45.921139,10.831297,2191
1522_17,Tenno-Rist. Alla Croce,,45.918081,10.832840,2191
1523_17,Cologna-Alb.Panorama,,45.915367,10.847093,2192
1524_17,Cologna,,45.914858,10.842365,2192
1525_17,Cologna-Belvedere,,45.913960,10.841415,2192
1526_17,Gavazzo,,45.912491,10.840954,2193
1528_17,Gardolo-Zona Ind.Le,,46.105316,11.100608,0935
1530_17,Trento-Ospedale S.Chiara,,46.058154,11.132919,0001
1531_17,Trento-Osp. S.Chiara,,46.058154,11.131198,0001
1532_17,Trento-Ospedale S.Camillo,,46.065482,11.131826,0001
1534_17,Trento-P.Zza Venezia,,46.067676,11.126902,0001
1535_17,Trento-Via Barbacovi,,46.064481,11.129758,0001
1536_17,Trento-Via M.Baldo,,46.057536,11.117437,0001
1538_17,Varone Alberello,,45.907214,10.840333,2136
1539_17,Varone Via Ballino 14,,45.904369,10.842057,2136
1540_17,Varone-Sc.Alberghiera,,45.902796,10.843564,2136
1541_17,Albola,,45.897666,10.844129,0960
1542_17,Riva D/Garda V.Le Dei Tigli 21,,45.892365,10.842948,0960
1544_17,Varone Sc.Alberghiera,,45.901569,10.844310,2136
1545_17,Varone Cascata,,45.911926,10.837202,2136
1546_17,Cologna-Alb.Panorama,,45.915416,10.847131,2192
1547_17,Ballino,,45.965776,10.811609,2188
1548_17,Torbiera,,45.992714,10.838523,2187
1549_17,Fiavè-Bar Aurora,,46.001313,10.841014,2185
1550_17,Fiave',,46.004365,10.842042,2185
1551_17,Fiavè-Caseificio,,46.002206,10.845756,2185
1552_17,Stumiaga,,46.007379,10.849193,2184
1554_17,Vigo Lomaso,,46.013241,10.869090,2182
1555_17,Campo Lomaso Ii,,46.021557,10.866822,2181
1556_17,Campo Lomaso,,46.023680,10.865724,2181
1558_17,Cares,,46.032891,10.863776,2195
1559_17,Comighello,,46.030953,10.851467,2196
1560_17,Sesto Bivio,,46.031422,10.846947,2225
1562_17,Villa di Bleggio,,46.029307,10.841954,2197
1563_17,Santa Croce,,46.024471,10.838769,2198
1564_17,Madice,,46.023864,10.832003,2199
1565_17,Marcè Bivio,,46.019261,10.823814,2241
1566_17,Cavrasto,,46.017078,10.819855,2185
1567_17,Balbido,,46.014860,10.811038,2202
1568_17,Rango,,46.018187,10.811832,2201
1569_17,Cavaione,,46.022570,10.819804,2207
1570_17,Marazzone,,46.026893,10.820735,2208
1571_17,Larido,,46.028690,10.823714,2208
1572_17,Bivedo,,46.028738,10.826650,2208
1574_17,Polin,,46.026824,10.720090,2292
1575_17,Breguzzo-Loc. Petò,,46.018713,10.711183,2293
1576_17,Breguzzo-Corè,,46.015355,10.707604,2293
1577_17,Breguzzo,,46.009294,10.699435,2293
1579_17,Bondo,,46.000242,10.692876,2294
1580_17,Pra' di Bondo,,45.996292,10.690680,2295
1581_17,Prà di Bondo-Falegnameria,,45.990894,10.685662,2295
1582_17,Roncone,,45.983562,10.670695,2296
1583_17,Fontanedo,,45.979182,10.666827,2297
1584_17,Lardaro,,45.969381,10.660893,2298
1585_17,Forti di Lardaro,,45.962753,10.658039,2305
1586_17,Strada,,45.944284,10.642772,2305
1587_17,Pieve di Bono-Loc. Creto,,45.939249,10.638650,2305
1588_17,Agrone,,45.954529,10.650079,2305
1589_17,Pieve di Bono-Tratt.Borel,,45.935769,10.639060,2305
1592_17,Cologna di P.Bono,,45.931355,10.637450,2309
1593_17,Cimego-Centrale Enel,,45.924618,10.632708,2310
1594_17,Ponte Cimego,,45.915356,10.621384,2310
1595_17,Cimego,,45.911927,10.614400,2310
1596_17,Cimego Quartinago,,45.910622,10.611835,2310
1597_17,Cimego-Bar Porte,,45.904469,10.608408,2310
1598_17,Condino-Alb.Condino,,45.891406,10.601560,2311
1599_17,Condino,,45.889021,10.599610,2311
1600_17,Condino-Case Itea,,45.884992,10.596494,2311
1601_17,Condino-Cartiere,,45.880389,10.592588,2311
1602_17,Condino-Carpenteria,,45.874623,10.588411,2311
1605_17,Storo,,45.848809,10.578087,2314
1606_17,Storo-Al Melograno,,45.850216,10.575210,2314
1608_17,Casa Rossa,,45.852440,10.565998,2314
1609_17,Darzo-Stork Club,,45.849192,10.559670,2320
1610_17,Darzo,,45.841241,10.549702,2320
1611_17,Darzo-Zona Ind.Le,,45.834353,10.542857,2320
1612_17,Lodrone,,45.829192,10.535456,2321
1613_17,Ponte Caffaro Bivio,,45.825079,10.531114,2323
1614_17,Ponte Caffaro-Mobilif.,,45.820924,10.539249,2323
1615_17,Ponte Caffaro-Pescicoltura,,45.817692,10.544283,2323
1616_17,Baitoni-Via Lago,,45.810328,10.543379,2323
1617_17,Baitoni,,45.808723,10.539588,2323
1618_17,Tione-Hotel Milano,,46.029118,10.723754,2290
1619_17,Polin,,46.026806,10.720064,2292
1620_17,Breguzzo,,46.009868,10.700202,2293
1621_17,Breguzzo-Hotel Carlone,,46.006364,10.697912,2293
1622_17,Bondo,,46.000001,10.692832,2294
1623_17,Prà di Bondo,,45.996469,10.690919,2295
1624_17,Roncone,,45.984559,10.672081,2296
1625_17,Fontanedo,,45.978898,10.666773,2297
1626_17,Lardaro,,45.969770,10.661090,2298
1627_17,Forti di Lardaro,,45.963004,10.658392,2305
1628_17,Agrone,,45.955368,10.650607,2305
1629_17,Strada,,45.944013,10.642640,2305
1630_17,Pieve di Bono-Tratt.Borel,,45.935706,10.639071,2305
1631_17,Cologna di P.Bono,,45.931273,10.637534,2309
1632_17,Condino-Alb.Condino,,45.891388,10.601534,2311
1633_17,Condino-Albergo Corona.,,45.888994,10.599609,2311
1634_17,Condino-Case Itea,,45.885120,10.596701,2311
1635_17,Condino-Cartiere,,45.880370,10.592622,2311
1637_17,Storo,,45.848889,10.578160,2314
1638_17,Darzo,,45.842292,10.550493,2320
1639_17,Darzo-Zona Ind.Le,,45.834080,10.542728,2320
1640_17,Lodrone,,45.829324,10.535700,2321
1641_17,Ponte Caffaro-Mobilif.,,45.821142,10.538882,2323
1643_17,Poia,,46.028668,10.880072,2171
1645_17,Comano,,46.034769,10.891022,2173
1646_17,Godenzo,,46.028860,10.883158,2173
1647_17,Poia,,46.028479,10.880067,2171
1648_17,Lundo,,46.012779,10.884054,2174
1649_17,Villa Banale,,46.046407,10.887193,2211
1650_17,Premione-Via di Pestelan,,46.047643,10.880493,2212
1651_17,Premione,,46.048273,10.874201,2212
1652_17,Stenico-Scuola,,46.049860,10.856623,2213
1653_17,Stenico,,46.051971,10.853879,2213
1655_17,Stenico-Dologno,,46.053473,10.873476,2213
1656_17,Dos Doa,,46.054273,10.897553,2211
1657_17,Seo,,46.057110,10.872923,2214
1658_17,Sclemo-Via Dei Caputel,,46.053790,10.879404,2215
1659_17,Sclemo,,46.055964,10.884041,2215
1660_17,Tavodo,,46.066323,10.892204,2216
1661_17,Tavodo-S.Provinciale,,46.064889,10.892129,2216
1662_17,Dorsino,,46.073366,10.896859,2218
1663_17,S.Lorenzo In Banale,,46.076504,10.907305,2219
1664_17,S.Lorenzo-Chiesa,,46.076672,10.909368,2219
1665_17,Lago Nembia,,46.096096,10.932585,2220
1666_17,Lago Nembia-Casa Enel,,46.107358,10.943027,2220
1669_17,Molveno-Centro,,46.142420,10.963759,0956
1670_17,Molveno,,46.140431,10.963727,0956
1671_17,Molveno-Hotel Du Lac,,46.141236,10.965607,0956
1672_17,Molveno-Grand Hotel,,46.134919,10.970224,0956
1673_17,Lago Nembia,,46.095952,10.933324,2220
1674_17,S.Lorenzo In Banale,,46.076385,10.907682,2219
1675_17,Tavodo-Incr.S.P.,,46.064760,10.892034,2216
1676_17,Sclemo,,46.055896,10.884206,2215
1679_17,Dos Doa,,46.054075,10.897270,2211
1680_17,Stenico-Dologno,,46.053480,10.873597,2213
1681_17,Stenico-Case Nuove,,46.052309,10.861002,2213
1682_17,Stenico,,46.051868,10.853805,2213
1683_17,Premione,,46.048262,10.874064,2212
1688_17,Castel Condino,,45.916322,10.602714,2324
1689_17,Bersone,,45.944017,10.633506,2305
1690_17,Praso,,45.949536,10.637414,2299
1691_17,Daone,,45.947374,10.621184,2300
1692_17,Castelnuovo-Zanzibar,,46.060200,11.490312,4450
1693_17,Carzano,,46.069839,11.493617,4405
1695_17,Scurelle-Via Murazzo,,46.069127,11.498027,4500
1696_17,Strigno-Loc.Colle,,46.067461,11.516074,4448
1697_17,Spera,,46.070410,11.508857,4448
1698_17,Strigno-Loc. Colle,,46.067492,11.515873,4448
1699_17,Samone,,46.081220,11.521945,4497
1700_17,Riva Del G.-Bivio Val Ledro,,45.894756,10.842615,0960
1701_17,Pregasina Bivio,,45.864433,10.812754,2163
1702_17,Pregasina,,45.851215,10.824947,2160
1703_17,Biacesa,,45.865050,10.805388,2142
1704_17,Prè,,45.866333,10.788169,2143
1705_17,Barcesino,,45.870893,10.781512,2162
1706_17,Molina di Ledro,,45.871762,10.772216,2144
1707_17,Molina di Ledro-Lago,,45.873683,10.766712,2144
1708_17,Mezzolago,,45.881040,10.750447,2145
1709_17,Pieve di Ledro,,45.889293,10.730664,2146
1710_17,Bezzecca-Vigili Del Fuoco,,45.893204,10.723837,2147
1711_17,Bezzecca-Scuole,,45.894714,10.720104,2147
1712_17,Locca,,45.900381,10.725642,2147
1713_17,Enguiso,,45.905795,10.729220,2147
1714_17,Lenzumo,,45.912386,10.726404,2147
1715_17,Lenzumo-Bar Taverna,,45.913165,10.728461,2147
1716_17,Enguiso,,45.906001,10.729023,2147
1717_17,Locca,,45.900374,10.725557,2147
1719_17,Tiarno di Sotto-Bivio,,45.893015,10.705842,2155
1721_17,Tiarno di Sotto,,45.893420,10.686731,2155
1722_17,Tiarno di Sotto-Garage,,45.892870,10.680696,2155
1723_17,Tiarno di Sopra-Cooperativa,,45.891308,10.674937,2156
1724_17,Tiarno di Sopra,,45.889966,10.671907,2156
1726_17,Ampola Agritur,,45.875782,10.658552,2159
1728_17,Storo Strada V.Di Ledro Civ.7,,45.846513,10.582364,2314
1729_17,Tiarno di Sopra-Mariani,,45.882813,10.666215,2156
1730_17,Tiarno di Sopra,,45.889993,10.671907,2156
1731_17,Mezzolago,,45.880746,10.750805,2145
1732_17,Molina di Ledro-Lago,,45.873879,10.766535,2144
1733_17,Molina di Ledro,,45.871873,10.771779,2144
1734_17,Barcesino,,45.871072,10.779830,2162
1735_17,Biacesa,,45.864939,10.804951,2142
1737_17,Padergnone Bivio,,46.060261,10.992518,2090
1738_17,Calavino,,46.045571,10.982813,2048
1739_17,Calavino-Via Battisti,,46.041420,10.982354,2048
1740_17,Madruzzo Bivio,,46.033912,10.981413,2060
1741_17,Lasino-Pizzeria 4 Stagioni,,46.024861,10.981219,2049
1742_17,Lasino-Piazza,,46.023488,10.983349,2049
1743_17,Stravino-Loc.Berlonga,,46.007748,10.981171,2050
1744_17,Stravino,,46.003193,10.980432,2050
1745_17,Cavedine-Telsar S.P.A.,,45.997601,10.977441,2051
1746_17,Cavedine,,45.993910,10.973347,2051
1747_17,Brusino,,45.985835,10.975991,2052
1748_17,Cavedine-Loc.Mai,,45.984137,10.977893,2052
1750_17,Vigo Cavedine,,45.978967,10.981220,2054
1752_17,Vigo Cavedine Bivio,,45.978092,10.977703,2054
1753_17,Masi di Vigo Cavedine-Bivio,,45.972584,10.974060,2055
1754_17,Luch,,45.965820,10.962328,2056
1755_17,Drena,,45.971089,10.944498,2057
1756_17,Lavini di Dro,,45.972773,10.934374,2127
1757_17,Centrale di Drena,,45.967117,10.928191,2127
1758_17,Arco Via Capitelli,,45.919119,10.880279,3520
1759_17,Arco Ospedale,,45.918802,10.876025,3520
1760_17,Chiarano,,45.918883,10.869412,3520
1761_17,Vigne,,45.919724,10.865352,3520
1762_17,Varignano,,45.918308,10.861655,3520
1764_17,Ceole-Madonna Grazie,,45.913916,10.857782,3520
1765_17,Pasina Bivio,,45.905638,10.851485,2136
1766_17,Arco Ospedale,,45.918839,10.875975,3520
1770_17,Mattarello-Ss 12,,46.010331,11.128951,3010
1771_17,Romagnano-Sp 131 Km 2,,46.009349,11.119329,3620
1772_17,Romagnano-Sp131 Km 1,,46.012418,11.106722,3620
1773_17,Romagnano-Cava Lonardi,,46.007832,11.107920,3620
1774_17,Romagnano-Sp 90 Km 20,,46.002046,11.104938,3620
1775_17,Aldeno-Maso Toricella,,45.991309,11.097816,3640
1776_17,Aldeno-Cimitero,,45.982519,11.092483,3640
1777_17,Aldeno,,45.976958,11.091825,3640
1779_17,Trento-Via S.Severino Dif. 127,,46.051021,11.111590,0001
1780_17,Ravina-Via Del Ponte,,46.043359,11.112299,3610
1781_17,Ravina Bivio,,46.037617,11.114124,3610
1782_17,Romagnano Bivio,,46.014855,11.106841,3620
1783_17,Aldeno-Loc. Dossi,,45.973211,11.085161,3640
1784_17,Aldeno-Loc. Ciausa,,45.975689,11.083537,3640
1785_17,S. Giorgio di Cimone,,45.975507,11.079658,3650
1786_17,Covelo di Cimone,,45.979308,11.070638,3670
1787_17,Covelo-Fam Cooperativa,,45.978460,11.067762,3670
1788_17,Cimone-Loc. Battistoni,,45.977954,11.064839,3670
1789_17,Cimone,,45.978318,11.066142,3670
1790_17,Cimone-Bivio Pietra,,45.981118,11.068558,3680
1791_17,Cimoneri,,45.984459,11.072224,3680
1792_17,Gazi,,45.983589,11.075235,3680
1793_17,Garniga Terme-Loc. Zobbio,,45.990055,11.083483,3690
1794_17,Garniga Terme,,46.001406,11.085872,3690
1795_17,Garniga-Piazza Lago,,46.004809,11.085840,3690
1796_17,Garniga Vecchia-Case di Sotto,,46.012362,11.078792,3695
1798_17,Garniga Vecchia,,46.013523,11.083563,3695
1799_17,Romagnano Bivio,,46.016038,11.107805,3620
1800_17,Ravina Bivio,,46.037512,11.114096,3610
1801_17,Trento-Tangenziale,,46.047755,11.113459,0001
1803_17,Serso,,46.074833,11.253093,4120
1804_17,Viarago-Via Delle Miniere,,46.082000,11.268852,4112
1806_17,Viarago,,46.079811,11.262169,4112
1807_17,Trento-V. S.Francesco,,46.067015,11.126396,0001
1808_17,Trento-Piazza Vicenza,,46.062177,11.132905,0001
1809_17,Cernidor,,46.047591,11.135195,0001
1810_17,S.Rocco,,46.035958,11.145676,3710
1811_17,S.Rocco-Maso,,46.026387,11.145848,3710
1812_17,Pianizza,,46.016816,11.145076,3720
1813_17,Valsorda,,46.007836,11.156884,3730
1814_17,Valsorda "Loc. Brusafer",,46.006314,11.163593,3730
1815_17,V.Vattaro Loc.Ca' De Ronc,,46.006518,11.170408,3740
1816_17,V.Vattaro-Difr.Civ.10B,,46.005903,11.190843,3740
1817_17,Vigolo Vattaro,,46.003942,11.195919,3740
1818_17,Bosentino-Loc.Mandola,,46.000565,11.216062,3740
1819_17,Bosentino,,46.001470,11.223215,3740
1821_17,V.Vattaro-Stab.Chindet,,45.999034,11.205424,3740
1822_17,Vattaro,,45.992588,11.218985,3760
1823_17,Vattaro-Civ.80,,45.990023,11.218973,3760
1824_17,Campregheri Bivio,,45.984608,11.232636,3791
1825_17,Pian Dei Pradi,,45.979043,11.237369,3770
1826_17,Centa,,45.969510,11.232842,3790
1827_17,Centa Bivio,,45.967431,11.226834,3790
1828_17,Centa-Bivio M.Cioli,,45.963371,11.220885,3790
1829_17,Menegoi,,45.952789,11.214272,3800
1830_17,Fricca,,45.949416,11.209041,3810
1831_17,Carbonare,,45.934439,11.226634,3820
1832_17,Nosellari-Alb. Al Bivio,,45.931381,11.244896,3830
1833_17,Nosellari,,45.929510,11.249886,3830
1834_17,Dazio,,45.928454,11.256435,3830
1835_17,Pra di Sopra,,45.930931,11.250611,3849
1836_17,Lago di Lavarone,,45.933981,11.255937,3849
1837_17,Lavarone-Hotel Du Lac,,45.937766,11.255226,3850
1838_17,Lavarone Chiesa,,45.941014,11.251668,3850
1839_17,Lanzino,,45.947305,11.250762,3863
1840_17,Stengheli,,45.949561,11.258659,3862
1841_17,Bertoldi,,45.950404,11.263150,3860
1842_17,Azzolini,,45.942711,11.265038,3861
1843_17,Gionghi,,45.940720,11.269666,3851
1844_17,Lavarone Cappella,,45.936708,11.275436,3870
1845_17,Gasperi,,45.940596,11.276807,3878
1846_17,Casanova,,45.941232,11.279663,3880
1847_17,Masetti Bivio,,45.954257,11.294440,3890
1848_17,Monterovere,,45.960661,11.297383,3890
1849_17,Luserna-Sp.9,,45.924891,11.317933,3895
1850_17,Luserna,,45.921652,11.324253,3895
1851_17,Nosellari,,45.929641,11.249472,3830
1852_17,Nosellari-Alb. Al Bivio,,45.931477,11.244823,3830
1853_17,Trento-Via Milano,,46.060801,11.127564,0001
1854_17,Maso Uez,,45.972959,11.233215,3790
1856_17,S.Cristoforo-Ht.Meridiana,,46.039518,11.242431,4200
1857_17,Ischia di Pergine,,46.033155,11.247724,4210
1858_17,Alberè-Maso Roveri,,46.031613,11.251900,4211
1859_17,Alberè di Tenna,,46.029541,11.255653,4211
1860_17,Tenna-Bivio Pontara Serafini,,46.023291,11.261980,4212
1861_17,Tenna-Sp 16 Al Km 4,,46.017113,11.266271,4212
1863_17,Tenna,,46.012780,11.266696,4212
1865_17,Rovereto-Via Paoli,,45.891149,11.039963,3100
1866_17,Rovereto-Via Craffonara,,45.886590,11.034169,3100
1867_17,Rovereto-Via Calcinari,,45.886539,11.044667,3100
1869_17,Rovereto-Ex Cartiera Ati,,45.887115,11.050652,3100
1870_17,Rovereto-Rist. S.Colombano,,45.885320,11.059868,3100
1871_17,Trattoria Genovesa,,45.882615,11.062600,3150
1872_17,Toldo-Sp 50 Km 0.2 Balanzi,,45.877319,11.065784,3151
1874_17,Toldo,,45.875509,11.068767,3151
1875_17,Toldo-Loc. Auga,,45.874366,11.069823,3151
1876_17,Moscheri,,45.868418,11.073189,3183
1877_17,Clocchi,,45.866543,11.073862,3184
1878_17,Barde,,45.862598,11.075467,3153
1879_17,Vignala,,45.861926,11.082476,3153
1880_17,Boccaldo,,45.857706,11.085127,3154
1881_17,Boccaldo Alta,,45.857139,11.088107,3154
1882_17,Giazzera Bivio,,45.861604,11.087086,3154
1883_17,Pozza di Trambileno,,45.863266,11.085270,3154
1884_17,Boccaldo Alta,,45.857597,11.087987,3154
1885_17,Boccaldo R,,45.857758,11.085257,3154
1886_17,Vanza Vn,,45.854586,11.078518,3155
1888_17,Vanza,,45.852886,11.077952,3155
1889_17,Vanza-Civ. 82,,45.851556,11.077387,3155
1890_17,Vanza-Bivio Pozzacchio,,45.846393,11.075715,3155
1891_17,Pozzacchio,,45.835139,11.082507,3253
1895_17,Lizzana,,45.866873,11.030681,3100
1896_17,Lizzana-Rovercenter,,45.864519,11.029207,3100
1897_17,Marco-Lavini,,45.854990,11.018110,3341
1900_17,Marco-Via Varini,,45.836853,11.011000,3341
1902_17,Serravalle,,45.809259,11.014916,3342
1905_17,Marani-Loc.Cumer,,45.785085,11.018484,3344
1910_17,Pilcante Bivio,,45.762285,11.004922,3346
1913_17,Sdruzzinà-Loc.Campagnola,,45.742707,10.980734,3347
1914_17,Sdruzzinà,,45.740832,10.977281,3347
1915_17,Vò Sinistro,,45.735022,10.959229,3358
1916_17,Sabbionara,,45.740019,10.957604,3349
1918_17,Avio-Carabinieri,,45.736955,10.946500,3350
1919_17,Avio,,45.735490,10.942934,3350
1920_17,Avio-Cantina Sociale,,45.732037,10.938470,3350
1921_17,Avio-Via M.Baldo,,45.731593,10.934435,3350
1922_17,Avio-Cantina Sociale,,45.732198,10.939079,3350
1923_17,Avio-Zona Ind.Le,,45.730364,10.939478,3350
1924_17,Avio-Loc.Dazio,,45.711912,10.926737,3350
1925_17,Mama D'avio,,45.704726,10.921750,3351
1926_17,Mama D'avio di Sotto,,45.700607,10.918679,3351
1927_17,Borghetto,,45.698581,10.926962,3352
1928_17,Borghetto-Cavalcaferr.,,45.699086,10.928925,3352
1929_17,S.Leonardo,,45.704662,10.930990,3353
1930_17,Masi D'avio,,45.712332,10.936854,3354
1931_17,Rovereto-Via Cavour,,45.887281,11.034552,3100
1933_17,Calliano-Bivio Folgaria,,45.933179,11.096306,3040
1934_17,Dietrobeseno,,45.927046,11.118484,3041
1935_17,Mezzomonte di Sotto,,45.916957,11.134879,3042
1936_17,Mezzomonte,,45.916422,11.138921,3042
1937_17,Peneri,,45.918996,11.145347,3043
1938_17,Carpeneda,,45.912806,11.157002,3044
1939_17,Folgaria-Ortofr.Bolognani,,45.918964,11.157834,3045
1940_17,Folgaria-Via 25 Aprile,,45.918634,11.162222,3045
1941_17,Folgaria-Via Battisti,,45.917297,11.166765,3045
1943_17,Costa-Hotel Garden,,45.918747,11.186274,3048
1944_17,Costa di Folgaria,,45.920179,11.188639,3048
1945_17,Bivio Nocchi,,45.919068,11.198434,3048
1946_17,Passo Del Sommo,,45.919566,11.205947,3054
1947_17,S.Sebastiano,,45.925010,11.212057,3049
1948_17,S.Sebastiano-Sez.Cacciatori,,45.925469,11.214887,3049
1949_17,Bivio Cueli,,45.923764,11.216204,3049
1950_17,Morganti,,45.929359,11.221272,3053
1951_17,Morganti,,45.929174,11.220992,3053
1952_17,Costa-Difr.Garden Hotel,,45.918768,11.186158,3048
1954_17,Costa di Folgaria,,45.920368,11.189059,3048
1956_17,Calliano-Bivio Folgaria,,45.933019,11.096720,3040
1958_17,Villa Lagarina-A22,,45.914606,11.033873,3101
1959_17,Villa Lagarina-Carabinieri,,45.916303,11.034064,3101
1960_17,Piazzo di Villa Lagarina,,45.922241,11.033966,3102
1961_17,Pomarolo,,45.926259,11.042605,3103
1962_17,Pomarolo-Chiesa,,45.926405,11.045615,3103
1963_17,Chiusole,,45.925420,11.053260,3104
1964_17,Nomi,,45.928721,11.072323,3105
1965_17,Nomi-Casa di Riposo,,45.927985,11.076155,3105
1967_17,Rovereto-Via Bellavista,,45.890920,11.047005,3100
1968_17,Campolongo-Noriglio,,45.887004,11.063812,3201
1969_17,Noriglio,,45.884541,11.069559,3201
1970_17,Noriglio-Beccachè,,45.882075,11.071791,3201
1971_17,Costa di Noriglio,,45.884272,11.072990,3198
1972_17,Valgrande-Sp 3 Km 8,,45.877090,11.105903,3207
1973_17,Valgrande,,45.878839,11.111133,3207
1974_17,Valduga-Prima,,45.876701,11.124251,3208
1976_17,Valduga,,45.877809,11.129783,3208
1977_17,Pedrazzi,,45.878152,11.142222,3222
1978_17,Peltreri,,45.878740,11.148788,3226
1979_17,Piazza di Terragnolo,,45.878928,11.152416,3209
1980_17,Dosso,,45.877625,11.155665,3215
1981_17,Puechem,,45.877317,11.157882,3215
1982_17,Camperi,,45.875552,11.160803,3215
1983_17,Baisi-Prima,,45.867655,11.180365,3223
1985_17,Baisi,,45.867812,11.182548,3223
1986_17,Zoreri,,45.866337,11.184371,3210
1987_17,Zoreri-Soldati,,45.864869,11.190060,3210
1988_17,Costa di Terragnolo,,45.880792,11.148055,3219
1989_17,Castello,,45.880834,11.141527,3219
1990_17,Potrich Bivio,,45.883305,11.123673,3197
1991_17,Scottini-Prima,,45.884471,11.129213,3212
1992_17,Scottini,,45.883890,11.135235,3212
1993_17,Serrada,,45.890915,11.154072,3047
1994_17,Serrada-Bivio Fondogrande,,45.896171,11.155748,3047
1995_17,Mezzaselva,,45.906007,11.173589,3046
1997_17,Folgaria-Rotatoria,,45.913038,11.178088,3045
1998_17,Serrada,,45.891049,11.154039,3047
1999_17,Mori-Terranera,,45.847885,10.983642,3310
2000_17,S.Cecilia,,45.823141,10.998179,3363
2001_17,Chizzola-Cava Cipriani,,45.819120,11.000156,3362
2002_17,Chizzola-Sp. 90 Km 16.8,,45.817738,11.003965,3362
2003_17,Chizzola-Euromobili,,45.813498,11.008311,3362
2004_17,Chizzola,,45.809175,11.008767,3362
2005_17,Villetta,,45.807112,11.009864,3364
2006_17,S.Lucia di Ala,,45.797365,11.015412,3356
2007_17,Pilcante-Capitelli,,45.772609,11.001559,3346
2008_17,Pilcante-Scuole,,45.770486,11.001247,3346
2009_17,Pilcante,,45.767191,11.000764,3346
2010_17,Campagnola,,45.757938,10.992038,3340
2011_17,Sabbionara-Casello Autostr.,,45.746871,10.976755,3349
2013_17,Cornè-Bivio Saccone,,45.810939,10.980437,3405
2014_17,Cornè-Fam.Coop,,45.807942,10.971566,3405
2015_17,Corne',,45.807953,10.970914,3405
2018_17,Pilcante-Cave,,45.778359,11.002675,3346
2019_17,Rovereto-Via Dante,,45.885868,11.040363,3100
2020_17,Rovereto-Viale Schio Civ. 19,,45.883683,11.043476,3100
2021_17,Rovereto-Via Zugna Civ. 13,,45.884371,11.046558,3100
2022_17,Bivio Porte di Trambileno,,45.883259,11.051312,3230
2023_17,Dosso di Trambileno,,45.880222,11.051101,3230
2024_17,Sich,,45.873857,11.058117,3230
2025_17,Albaredo,,45.855995,11.061134,3231
2026_17,Foppiano,,45.842063,11.061812,3232
2027_17,Zanolli,,45.822792,11.070762,3233
2028_17,Matassone,,45.815852,11.078229,3234
2029_17,Aste,,45.790383,11.095312,3162
2030_17,Cumerlotti,,45.787134,11.101382,3236
2031_17,Riva di Vallarsa,,45.779570,11.105236,3237
2032_17,Bruni,,45.776691,11.107624,3238
2033_17,Geche,,45.769336,11.115939,3243
2034_17,Obra di Vallarsa,,45.764916,11.116504,3239
2035_17,Ometto,,45.759715,11.118827,3240
2036_17,Rovereto-S.Maria,,45.883632,11.040799,3100
2060_17,Vanza Bivio,,45.850946,11.073051,3155
2061_17,Pozzacchio Bivio,,45.844983,11.074256,3155
2062_17,Valmorbia,,45.818618,11.091659,3159
2063_17,Valmorbia-Bivio Dosso,,45.816939,11.094622,3159
2064_17,Zocchio,,45.809064,11.096515,3160
2065_17,Anghebeni-Fam.Coop,,45.796466,11.105436,3162
2066_17,Arlanch,,45.790988,11.102064,3162
2067_17,S.Anna di Vallarsa,,45.794758,11.096737,3162
2068_17,Arlanch-Dir. Raossi,,45.791126,11.101786,3162
2069_17,Anghebeni,,45.794140,11.107317,3162
2070_17,Foxi,,45.789794,11.111886,3163
2071_17,Foxi-Loc.Prugnele,,45.787188,11.109190,3163
2072_17,Raossi-Loc.Corte,,45.782482,11.114263,3164
2073_17,Raossi,,45.782692,11.118682,3164
2074_17,Speccheri Bivio,,45.781151,11.124399,3167
2075_17,Parrocchia di Vallarsa,,45.776986,11.123302,3167
2076_17,Piano,,45.773237,11.131268,3167
2077_17,Piano di Vallarsa,,45.771493,11.135679,3167
2078_17,Streva,,45.762476,11.161870,3166
2079_17,Pian Delle Fugazze,,45.760391,11.172669,3166
2084_17,Spino,,45.860265,11.074844,3156
2085_17,Speccheri,,45.765508,11.129886,3165
2086_17,Camposilvano Ii,,45.758239,11.144360,3166
2087_17,Camposilvano,,45.760188,11.144107,3166
2099_17,Ronzo Chienis,,45.891087,10.951842,3389
2100_17,Ronzo Chienis-Via Longa,,45.888625,10.948741,3389
2101_17,Ronzo Chienis-Cons.Ortofrutta,,45.886909,10.946662,3389
2102_17,Varano,,45.881318,10.938412,3385
2103_17,Pannone,,45.877265,10.934161,3384
2105_17,Nomesino,,45.865456,10.962700,3381
2106_17,Manzano,,45.866737,10.953611,3381
2107_17,Valle S.Felice,,45.868989,10.938219,3381
2108_17,Loppio-Bivio,,45.855770,10.932164,3460
2123_17,Tierno-Via G.Battisti,,45.847789,10.978015,3310
2124_17,Tierno,,45.845531,10.977544,3310
2125_17,Besagno,,45.837659,10.969125,3401
2126_17,Castione,,45.837801,10.953532,3407
2127_17,Brentonico-Ferramenta,,45.819440,10.958237,3407
2128_17,Brentonico,,45.817937,10.956112,3407
2129_17,Fontechel,,45.816501,10.948274,3407
2130_17,Fontechel-Bivio S.Giacomo,,45.814087,10.945968,3407
2131_17,Prada,,45.801037,10.955919,3411
2132_17,Saccone-Loc. Al Bus,,45.796067,10.965987,3412
2133_17,Saccone,,45.795393,10.974289,3412
2134_17,Crosano Bivio,,45.821314,10.967065,3407
2135_17,Brentonico-Mobil.Zoller,,45.822387,10.962756,3407
2136_17,Sorne,,45.808236,10.953404,3413
2137_17,Cazzano,,45.816981,10.969311,3407
2138_17,Crosano-Via S.Biagio 25/27,,45.818934,10.975083,3407
2141_17,Crosano-Fam. Coop.,,45.820049,10.975655,3407
2142_17,Crosano-Via Mazzini,,45.820615,10.970804,3407
2145_17,Cornè Loc. Gai,,45.808687,10.967860,3405
2151_17,Passo Fedaia,,46.453831,11.887760,1410
2154_17,Lagolo-Rifugio,,46.041468,11.004883,2670
2155_17,Lagolo-Capolinea,,46.037318,11.002885,2670
2156_17,Tesero-Via Mulini,,46.296355,11.506062,1190
2157_17,Tesero-Loc. Pesa,,46.305819,11.504988,1190
2158_17,Stava-Chiesetta,,46.310264,11.505074,1182
2159_17,Stava,,46.315421,11.503413,1182
2160_17,Stava-Hotel Sandrani,,46.320987,11.502080,1182
2161_17,Pampeago-Hotel Scoiattolo,,46.340594,11.537717,1192
2162_17,Alpe Pampeago,,46.342026,11.540499,1192
2163_17,Varena-Via Alpini-Dir.Lavazè,,46.307730,11.460137,1160
2164_17,Bancoline-Rist. La Baita,,46.314227,11.471471,1160
2165_17,Chiusa,,46.320669,11.483570,1162
2166_17,Stava-Bivio,,46.327234,11.483815,1182
2167_17,Passo Lavaze',,46.354514,11.492191,1164
2169_17,Passo Oclini,,46.347373,11.453588,1165
2171_17,Pian Trevisan-Bar El Cosinat,,46.461329,11.828179,1400
2172_17,Pian Trevisan-Bivio,,46.462003,11.832761,1400
2173_17,Lago Fedaia,,46.463978,11.862028,1420
2174_17,Civezzano-Quadrivio,,46.089186,11.185616,1100
2175_17,Lago Welsperg,,46.194066,11.866568,5153
2176_17,Villa Welsperg,,46.198461,11.867172,5153
2177_17,Piereni,,46.206161,11.871268,5153
2178_17,Val Canali,,46.217647,11.877650,5153
2180_17,Albergo Lozen,,46.175310,11.777620,5121
2181_17,Lago Calaita,,46.201781,11.792384,5121
2187_17,Rovereto-Fs Sud,,45.890320,11.034004,3100
2193_17,Civezzano Scuola Media,,46.092559,11.179566,1100
2194_17,Virti,,45.945491,11.238625,3850
2204_17,Vetriolo Terme,,46.041895,11.317075,4331
2205_17,Terme di Levico,,46.014141,11.296811,4300
2206_17,Baiti di Vetriolo,,46.029555,11.333595,4332
2207_17,Ristorante Cacciatore,,46.031893,11.341919,4332
2208_17,Compet,,46.039356,11.299900,4331
2210_17,Visintainer Bivio,,46.032037,11.267098,4290
2211_17,Falesina,,46.071004,11.277772,4136
2212_17,Ivano Fracena,,46.057114,11.528163,4511
2213_17,Trento-Via Bezzi,,46.058466,11.119270,0001
2214_17,Loc. Lochere,,45.989030,11.301001,4322
2215_17,Quaere,,45.991113,11.303016,4321
2216_17,Lochere Bivio Quaere,,45.991197,11.300217,4322
2217_17,Predazzo-Piscina Com.,,46.311470,11.615521,1220
2218_17,Bedollo-Inc.Osvaldo/Martinati,,46.165825,11.298951,4050
2219_17,Bedollo-Via S.Osvaldo 26,,46.166497,11.300800,4050
2220_17,Bedollo-Inc.Via S.Osvaldo/Pec,,46.168357,11.302237,4050
2221_17,Barcatta-Civico 31,,46.251160,11.350430,1128
2223_17,S.Giuliana-Via Delle Fonti 2,,45.989483,11.311520,4320
2226_17,Fiera di Primiero,,46.162679,11.818537,5130
2227_17,Fiera di Primiero,,46.172235,11.823741,5140
2228_17,Molaren,,46.168000,11.820299,5140
2229_17,Mezzano-Casa Ina,,46.156450,11.807987,5130
2230_17,Transacqua-Albergo Belvedere,,46.177762,11.837163,5140
2231_17,Transacqua-Piazza S.Marco,,46.174804,11.833422,5140
2232_17,Transacqua-Isolabella,,46.175236,11.831617,5140
2234_17,Tonadico-3 Ponti,,46.179984,11.837951,5140
2236_17,S.Caterina di Pergine,,46.017255,11.227013,4250
2241_17,Rocce Rosse,,46.031915,11.045708,2650
2242_17,Rov.-C.Rosmini Pt,,45.891069,11.041276,3100
2243_17,Rovereto-Via Vannetti,,45.890246,11.035597,3100
2244_17,Rovereto-C.Rosmini-Monumento,,45.890842,11.043033,3100
2246_17,Cembra-Cimitero,,46.174568,11.217545,1078
2247_17,Bosco-Maso Jobstraibizer,,46.113245,11.179416,1106
2248_17,Arco-Svizzera,,45.921147,10.891383,3520
2250_17,Arco Via S.Caterina,,45.912519,10.875504,3520
2252_17,Hacleri,,46.124459,11.339734,4143
2253_17,Calvola,,45.926490,10.831529,2210
2254_17,Aldeno-Maso Canova,,45.964223,11.092597,3640
2255_17,Valmesta Bivio Rif.Dismoni,,46.222916,11.808835,5170
2256_17,Strigno-Via Roma,,46.063333,11.523678,4520
2257_17,Roncogno-Maso Raot,,46.067440,11.209973,4137
2258_17,Zivignago-Al Ponte,,46.072253,11.261136,4111
2259_17,Viarago-Via Montegian,,46.079285,11.259876,4112
2260_17,Passo Rolle-Albergo Venezia,,46.296223,11.782408,1224
2261_17,Zava,,46.042112,11.251018,4282
2263_17,Masetti-Paese,,46.051334,11.248911,4280
2264_17,Ss.12 S.Ilario/Via Stroperi,,45.913228,11.044675,3100
2265_17,Terlago Centro Sportivo,,46.088960,11.047688,2021
2266_17,Vason-Sp85 Al Km 17,,46.042742,11.061772,2650
2267_17,Terlago-Via Fies,,46.099087,11.042564,2021
2269_17,S.Antonio di Mav.-Loc. Pozze,,46.183791,10.777007,2470
2271_17,Cavrasto Itea,,46.018633,10.818609,2185
2273_17,Balbido-Scuole,,46.016040,10.815917,2202
2274_17,Ponte Arche Sp5 Civ. 1,,46.035110,10.868135,2180
2278_17,Vigo Cavedine-Sp84,,45.977989,10.976708,2054
2279_17,Luch-Bivio Con Via Del Ponte,,45.969281,10.968598,2056
2280_17,Baselga Del Bondone,,46.078317,11.046923,2030
2281_17,Besenello-Posta Vecchia,,45.951292,11.108365,3030
2283_17,Lagolo Sp85 Km. 23.5,,46.035397,11.022798,2670
2286_17,Enguiso Via Del Bo' Civ. 2,,45.909557,10.728931,2147
2287_17,Bezzecca-Eurospin,,45.895357,10.715058,2147
2288_17,Tiarno di Sotto Loc. Degara,,45.892989,10.690920,2155
2289_17,Lodrone-Hotel Castel Lodrone,,45.830957,10.539451,2321
2290_17,Ragoli "Croce",,46.054826,10.781590,2240
2291_17,Bersone-Capolinea,,45.946322,10.632473,2305
2292_17,Praso-Loc. Sevror,,45.953886,10.641928,2299
2293_17,Molveno-Cimitero,,46.141389,10.965587,0956
2295_17,Brione Case Itea,,45.879611,10.859099,0960
2296_17,Brione H.Orchidea,,45.884339,10.862801,0960
2297_17,S.Alessandro,,45.888068,10.862062,0960
2299_17,S.Alessandro Via Rovigo,,45.886952,10.858210,0960
2300_17,S.Alessandro Cartiera,,45.887068,10.855456,0960
2301_17,S.Giorgio La Grotta,,45.893713,10.860859,3520
2302_17,S.Giorgio,,45.898584,10.867403,3520
2303_17,S.Giorgio Incr.V.Sabbioni,,45.900713,10.870375,3520
2304_17,S.Giorgio Zona Artigianale,,45.904914,10.874925,3520
2305_17,S.Giorgio Incr. Circonvall.,,45.908116,10.877805,3520
2306_17,Arco Via Mantova 1,,45.909906,10.879503,3520
2307_17,Arco Via Mantova 21,,45.912913,10.882712,3520
2308_17,Arco Via Monache Poste,,45.916064,10.884856,3520
2309_17,Varone Via Venezia/Sega,,45.908163,10.845083,2136
2310_17,Varone Via Venezia/Ferrari,,45.908613,10.842274,2136
2313_17,Riva V.Rovereto Vv.Ff.,,45.884007,10.851075,0960
2314_17,Riva Del G.-Via D. Chiesa,,45.888587,10.846175,0960
2315_17,Tione-Istituto,,46.034811,10.728764,2290
2316_17,Ss. 240-Stab. Sasib,,45.870294,11.016687,3100
2317_17,Obra di Vallarsa Civ. 13,,45.766710,11.114411,3239
2318_17,Eremo di S. Colombano,,45.878686,11.063386,3150
2319_17,Rovereto-Via Barattieri,,45.896492,11.040687,3100
2320_17,Tione Ospedale Civile,,46.043032,10.724962,2290
2321_17,Vignole,,45.908948,10.901506,3520
2322_17,Massone Inc.Via Gazzoletti,,45.916854,10.901286,3520
2324_17,Pianizza Ii,,46.012192,11.147856,3720
2326_17,Vattaro-Maso Fosina,,45.997039,11.211763,3760
2327_17,Ss.349 Al Km. 15,,45.989043,11.222359,3760
2329_17,Cornè-Loc. Lodrone,,45.805623,10.974985,3405
2330_17,Loc. Landrom Civ. 1,,45.805458,10.941042,3407
2331_17,Cornè Loc. Cave,,45.809262,10.981073,3405
2332_17,Cornè Loc. Cave Ii,,45.808106,10.981856,3405
2333_17,Piantino,,45.860713,10.937412,3381
2334_17,Valle S.Felice-Cimitero,,45.867974,10.939727,3381
2336_17,Ronzo Chienis-Via Bordala,,45.892389,10.953621,3389
2338_17,Montagnaga "Villa Alpina",,46.101490,11.236265,4042
2340_17,Passo Cereda-Maso Vaietta,,46.197435,11.918313,5143
2342_17,Pergolese,,46.026608,10.959251,2122
2343_17,Masi di Vigo Cavedine,,45.965319,10.973622,2055
2344_17,Por,,45.938517,10.648236,2308
2345_17,Villa Lagarina-Via Magrè,,45.917603,11.033513,3101
2346_17,Pomarolo-Via Del Pionte,,45.925171,11.048059,3103
2349_17,Bastianello,,45.762873,11.127614,3165
2350_17,Pezzati,,45.764686,11.126436,3165
2351_17,Agordo-Luxottica,,46.284248,12.021344,5260
2352_17,Vigile,,45.973218,11.057989,3680
2353_17,Costa di Cimone,,45.978262,11.060241,3680
2354_17,Finestrella,,45.980687,11.061054,3680
2355_17,Pietra di Cimone,,45.981134,11.063692,3680
2356_17,Guardia di Folgaria,,45.907383,11.132643,3051
2357_17,Rosetta,,46.182427,11.831611,5140
2358_17,Regnana Via Dei Tamagi,,46.158144,11.303494,4048
2359_17,Pieve Tesino Vigili Del Fuoco,,46.066274,11.616186,4550
2362_17,Levico T.-Inc. Via Delle Alte,,46.017559,11.341849,4300
2363_17,Gionzeri,,46.057249,11.409701,4382
2364_17,Strigno,,46.065981,11.523177,4520
2365_17,Spera-Capolinea.,,46.075035,11.506866,4448
2367_17,Villa-Solo Dir. Strigno Fs,,46.056889,11.519595,4449
2368_17,Cadino,,46.217404,11.153411,1020
2371_17,Sopramonte Sp85 Loc. La Valle,,46.075881,11.056030,2621
2372_17,Sopramonte Sp 85,,46.075775,11.058709,2621
2373_17,Sopramonte,,46.071315,11.059208,2621
2374_17,Maso Banal,,46.069074,11.063408,2621
2376_17,Cavalese-Ospedale,,46.289132,11.454838,1070
2377_17,Falcade Bivio Passo Valles,,46.360072,11.844299,1227
2378_17,Passo Lavazè,,46.352293,11.484106,1164
2379_17,S.Martino di C.-Ex V.Pisoni,,46.277777,11.798406,0961
2380_17,Trento Via Piave,,46.062106,11.125369,0001
2382_17,Caderzone Bivio Con Via Pozze,,46.124768,10.754291,2430
2383_17,Lisignago-Casa di Riposo,,46.161789,11.198439,1077
2384_17,Caloneghi,,46.198208,11.318204,1121
2385_17,Male',,46.353568,10.916865,6300
2386_17,Terzolas-Bivio Val di Rabbi,,46.358215,10.917237,6300
2387_17,Magras-Bivio,,46.360122,10.912466,6300
2388_17,Loc. Molini,,46.366694,10.891517,6321
2389_17,Pracorno-Sud,,46.370048,10.883505,6322
2390_17,Pracorno,,46.373171,10.878309,6322
2391_17,Pracorno Bivio Pozze,,46.378808,10.869665,6322
2392_17,Tasse',,46.390586,10.860429,6323
2393_17,Tassè Nord,,46.394024,10.856873,6323
2394_17,S.Bernardo Sud,,46.398432,10.849463,6324
2395_17,S.Bernardo,,46.401240,10.845317,6324
2396_17,Piazzola Bivio,,46.406018,10.828573,6327
2397_17,Casna,,46.406059,10.831614,6327
2398_17,Penasa-Bivio,,46.406915,10.832112,6327
2399_17,Nistella,,46.408996,10.828337,6327
2400_17,Crespion,,46.410259,10.823660,6327
2401_17,Piazzola,,46.410436,10.817919,6327
2402_17,Piazzola-Nord,,46.409742,10.814025,6327
2403_17,Somrabbi-Sud,,46.409815,10.810178,6328
2405_17,Somrabbi-Misseroni,,46.409866,10.803284,6328
2406_17,Somrabbi,,46.410071,10.800285,6328
2407_17,Rabbi Bagni-Sud,,46.407767,10.811438,6327
2408_17,Rabbi Bagni-Bar Stella,,46.407756,10.813272,6327
2409_17,Rabbi Bagni,,46.407620,10.808739,6327
2410_17,Masnuovo,,46.407370,10.824474,6327
2411_17,Male' Nord,,46.350062,10.909675,6300
2413_17,Croviana,,46.34384,10.90721,6310
2414_17,Monclassico Sud,,46.335934,10.893306,6320
2415_17,Monclassico,,46.333268,10.888506,6320
2416_17,Presson,,46.332437,10.879967,6340
2417_17,Dimaro Bivio,,46.327363,10.872176,6340
2418_17,Dimaro,,46.325736,10.874813,6340
2419_17,Maso Bonetei,,46.320999,10.872238,6340
2420_17,Costa Rotian,,46.317748,10.867682,6341
2421_17,Folgarida,,46.305592,10.863346,6342
2422_17,Sun Valley,,46.304640,10.867093,6342
2423_17,Belvedere,,46.297442,10.867492,6343
2424_17,Genziana,,46.260118,10.854862,6344
2426_17,Trento-Staz. Ftm,,46.07439,11.12080,0001
2427_17,Cles-Autostazione,,46.364609,11.038663,6220
2429_17,Mangiasa,,46.350219,10.899069,6301
2430_17,Claiano Bivio,,46.312711,10.776897,6386
2431_17,Pellizzano,,46.311377,10.757834,6386
2432_17,Termenago Sud,,46.315408,10.764912,6388
2433_17,Termenago,,46.316573,10.765807,6388
2434_17,Castello di Pellizzano,,46.321750,10.774400,6389
2435_17,Ortisè,,46.326213,10.784864,6390
2436_17,Menas,,46.328403,10.786377,6391
2437_17,Bolentina,,46.344185,10.883605,6302
2438_17,Montes,,46.340465,10.875564,6302
2440_17,Dimaro-Ponte,,46.327957,10.870296,6340
2441_17,Deggiano Bivio,,46.323839,10.851495,6350
2442_17,Mastellina,,46.322222,10.846842,6350
2443_17,Mestriago,,46.321368,10.839837,6360
2445_17,Piano di Commezzadura,,46.320439,10.825419,6370
2447_17,Mezzana,,46.315764,10.802618,6380
2448_17,Mezzana-Ovest,,46.316772,10.798611,6380
2452_17,Cusiano,,46.309863,10.745642,6395
2453_17,Ossana,,46.307528,10.736464,6398
2454_17,Fucine,,46.311165,10.731621,6401
2455_17,Cortina di Vermiglio,,46.299593,10.699089,6408
2456_17,Vermiglio Sud,,46.297618,10.695769,6408
2457_17,Vermiglio,,46.296726,10.689145,6408
2458_17,Vermiglio Nord,,46.294790,10.686164,6408
2459_17,Vellon Bivio,,46.283583,10.659509,6409
2460_17,Forte Strino,,46.280068,10.648355,6409
2461_17,Passo Tonale-Anas,,46.263321,10.611651,6410
2462_17,Passo Tonale-Locatori,,46.261366,10.594410,6410
2463_17,Passo Tonale Sud,,46.260063,10.586561,6410
2464_17,Passo Tonale,,46.258871,10.583569,6410
2465_17,Marilleva 900,,46.314155,10.811592,6380
2466_17,Marilleva "Albergo Sole Alto",,46.298520,10.818789,6382
2467_17,Marilleva "Telecabina",,46.300719,10.813810,6382
2468_17,Marilleva 1400 "Ag.Alpitour",,46.302481,10.810259,6382
2469_17,Marilleva 1400 "Resid. Lores",,46.303610,10.809153,6382
2470_17,Marilleva 1400,,46.304569,10.810522,6382
2475_17,Celentino Bivio,,46.332813,10.709894,6402
2476_17,Comasine Bivio,,46.335960,10.706466,6402
2477_17,Celledizzo Bivio,,46.343942,10.701441,6404
2478_17,Cogolo,,46.351466,10.693236,6405
2479_17,Peio-Campeggio Val di Sole,,46.356724,10.679113,6406
2480_17,Peio-Fonti,,46.355636,10.662975,6406
2481_17,Peio,,46.363725,10.675415,6407
2511_17,Mezzolombardo,,46.213452,11.093443,6120
2512_17,Mezzocorona-Borg.,,46.214948,11.118695,6110
2513_17,Mezzocorona-Staz.Fs,,46.207570,11.128292,6110
2514_17,Mezzocorona-Pineta,,46.222934,11.133542,6111
2515_17,Maso Nuovo,,46.229732,11.140831,6112
2516_17,Roverè Della Luna-Sud,,46.246991,11.164688,6113
2518_17,Roverè Della Luna-Nord,,46.248489,11.177240,6113
2519_17,Mezzocorona Ferrovia,,46.206335,11.127415,6110
2520_17,Grumo,,46.196958,11.127338,6110
2521_17,Maso Barco,,46.199916,11.142321,6093
2522_17,Maso Canazzi,,46.195686,11.144587,6094
2523_17,Villa Piccola,,46.197030,11.148027,6092
2524_17,Molini,,46.193123,11.154744,6095
2526_17,Faedo-Via Case Sparse. 9,,46.191841,11.155681,6095
2527_17,Faedo,,46.192668,11.161231,6095
2529_17,Zambana,,46.151196,11.096590,0940
2531_17,Mezzolombardo-Nord,,46.216896,11.087200,6120
2532_17,Spormaggiore,,46.218109,11.047995,6131
2533_17,Spormaggiore Zona Industriale,,46.227458,11.051655,6131
2534_17,Spormaggiore Sud,,46.225060,11.049374,6131
2535_17,Castel Belfort,,46.204621,11.040809,6132
2536_17,Cavedago,,46.184023,11.028968,6133
2537_17,Cavedago,,46.183709,11.027375,6133
2538_17,Cavedago Ai Piani,,46.190764,11.041592,6133
2539_17,Cavedago Maso Canton,,46.185517,11.038547,6133
2540_17,Maso Dalsas,,46.184816,11.023580,6133
2541_17,Cavedago-Cimitero,,46.185023,11.021294,6133
2542_17,Andalo,,46.163920,11.002762,6137
2543_17,Andalo Sud,,46.171090,11.007803,6137
2544_17,Andalo-Via Trento,,46.166961,11.003857,6137
2545_17,Genzianella,,46.151466,10.980892,0956
2546_17,Molveno Nord,,46.144090,10.966110,0956
2547_17,Molveno Htl Excelsior,,46.142590,10.962794,0956
2548_17,Trento-L.Go N. Sauro,,46.074839,11.125033,0001
2550_17,Maso Daldoss,,46.182711,11.019719,6134
2551_17,Fai Della Paganella,,46.179005,11.070116,6135
2552_17,Fai Paganella-Sud,,46.183826,11.072533,6135
2553_17,Fai Paganella,,46.177583,11.069132,6135
2554_17,Cortalta-Fai Della Paganella,,46.175510,11.065073,6135
2555_17,Fai Paganella-Miravalle,,46.175485,11.058938,6135
2557_17,Santel,,46.175704,11.052306,6136
2558_17,Andalo-Maso Toscana,,46.169857,11.017019,6137
2559_17,Andalo-Nord,,46.168088,11.008341,6137
2560_17,Andalo-Via Paganella,,46.164957,11.007217,6137
2561_17,Rallo Bivio,,46.350029,11.051765,6210
2562_17,Rallo,,46.342731,11.046707,6210
2563_17,Sanzenone,,46.335328,11.044682,6210
2566_17,Tuenno,,46.325965,11.022364,6155
2568_17,Portolo,,46.303254,11.059854,6216
2569_17,Cles-Piazza Chiesa,,46.364641,11.036415,6220
2590_17,Tassullo Ferrovia,,46.341056,11.053745,6210
2609_17,Cles-Ospedale,,46.360864,11.031647,6220
2610_17,Cles-Masere,,46.356839,11.029223,6220
2611_17,Mechel-Sud,,46.351335,11.022417,6157
2612_17,Mechel--Civ. 19,,46.349423,11.020085,6157
2613_17,Mechel,,46.348916,11.018220,6157
2616_17,Pozza di Fassa "Loc. Vac",,46.432642,11.687083,1300
2617_17,Mostizzolo-Bivio,,46.393762,11.012186,6230
2618_17,Toflini,,46.399781,11.010735,6230
2619_17,Scanna,,46.396204,11.025740,6705
2620_17,Varollo,,46.398140,11.022169,6710
2621_17,Livo,,46.405418,11.017741,6715
2622_17,Preghena Ovest,,46.409016,11.010463,6720
2623_17,Baselga di Bresimo,,46.415259,10.985103,6760
2624_17,Bresimo Sud,,46.412205,10.973595,6765
2625_17,Bresimo,,46.410794,10.968255,6765
2626_17,Preghena Nord,,46.409637,11.016806,6720
2627_17,Marcena Molini,,46.444993,11.009923,6730
2628_17,Marcena,,46.441917,11.017475,6730
2630_17,Marcena Ori,,46.440813,11.021925,6730
2631_17,Corte Inferiore Bivio,,46.439028,11.025890,6730
2632_17,Mione,,46.437083,11.027969,6730
2633_17,Marcena Du Park,,46.445771,11.013295,6730
2634_17,Corte Superiore Bivio,,46.448624,11.011240,6750
2635_17,Scassio,,46.449562,11.009059,6750
2636_17,Mocenigo,,46.450900,11.008221,6750
2637_17,Lanza di Rumo,,46.454750,11.012450,6755
2638_17,Truzzi Bivio,,46.239470,11.062324,6123
2639_17,Truzzi Nord,,46.243084,11.063909,6123
2643_17,Masi di Vigo-Bivio,,46.248990,11.068939,6123
2644_17,Bastianelli,,46.257920,11.082715,6124
2645_17,Vigo di Ton,,46.265372,11.086167,6125
2646_17,Vigo di Ton-Nord,,46.263933,11.081178,6125
2647_17,Bivio Raut,,46.261436,11.075689,6125
2648_17,Raut,,46.254575,11.069653,6125
2649_17,Toss-Sud-Via Verdi,,46.275582,11.080015,6127
2650_17,Toss,,46.276612,11.079293,6127
2651_17,Lavis--Via Filos,,46.145606,11.097286,1010
2652_17,Zambana Aicheri,,46.154152,11.092792,0940
2653_17,Maso Gesuiti,,46.156479,11.091745,0940
2654_17,Maso San Valentino,,46.159261,11.098110,0945
2655_17,Nave San Rocco,,46.166352,11.109802,0947
2656_17,Masetto,,46.171237,11.105359,0948
2657_17,Maso Inon,,46.177718,11.105564,0949
2658_17,Maso Tabarelli,,46.182694,11.105639,0950
2659_17,Rupe,,46.195889,11.101453,0951
2660_17,Mezzolombardo Stella,,46.209487,11.094155,6120
2661_17,Crescino,,46.241885,11.058665,6123
2662_17,Denno Magazzino,,46.266671,11.055952,6151
2663_17,Cagnò,,46.394922,11.040170,6650
2664_17,Revò,,46.390858,11.059223,6655
2665_17,Romallo,,46.396342,11.066059,6660
2666_17,Romallo Nord,,46.399681,11.068547,6660
2667_17,Cloz Sud,,46.416351,11.084548,6665
2668_17,Cloz,,46.419465,11.087258,6665
2669_17,Cloz-Nord,,46.421863,11.089961,6665
2670_17,Arsio,,46.426557,11.096350,6670
2671_17,Brez,,46.430992,11.107223,6675
2672_17,Castelfondo,,46.454373,11.117516,6686
2673_17,Fondo-Piazza S.Giovanni,,46.439416,11.135808,6580
2674_17,Fondo-Via Garibaldi,,46.437269,11.137786,6580
2675_17,Fondo-Autorimessa,,46.436126,11.140681,6580
2676_17,Denno,,46.274960,11.048179,6151
2677_17,Cunevo,,46.285934,11.037961,6152
2678_17,Flavon,,46.299109,11.031190,6153
2679_17,Terres,,46.309982,11.022795,6154
2680_17,Tuenno-Sud,,46.321470,11.021827,6155
2681_17,Mechel Bivio,,46.352206,11.027089,6220
2683_17,Santa Giustina,,46.346039,11.060428,6210
2684_17,Dermulo,,46.337645,11.062917,6200
2685_17,Coredo,,46.348752,11.088969,6501
2686_17,Smarano,,46.341949,11.107755,6503
2687_17,Sfruz,,46.336818,11.115841,6503
2688_17,Tret,,46.478291,11.138235,6581
2694_17,Sporminore,,46.237349,11.031290,6143
2695_17,Sporminore Nord,,46.239613,11.023899,6143
2696_17,Lover,,46.247526,11.024542,6144
2697_17,Campodenno-Bivio,,46.258800,11.032814,6145
2698_17,Quetta-Bivio,,46.258112,11.046466,6145
2699_17,Termon,,46.268090,11.036287,6151
2701_17,Palu' di G.-C.Polisportivo,,46.159422,11.143570,1075
2702_17,Sanzeno,,46.365670,11.074273,6510
2703_17,Malgolo,,46.378329,11.088787,6530
2704_17,Malgolo-Nord,,46.380902,11.094416,6530
2705_17,Salter,,46.377512,11.105840,6540
2706_17,Salter-Nord,,46.381139,11.107306,6540
2707_17,Romeno,,46.394691,11.120601,6550
2708_17,Cavareno-Loc. Piena,,46.402899,11.132187,6550
2709_17,Cavareno,,46.409370,11.137490,6560
2710_17,Sarnonico,,46.418620,11.140698,6570
2711_17,Fondo-Sud,,46.432346,11.140639,6580
2712_17,Malosco,,46.434123,11.144997,6590
2715_17,Ronzone,,46.424321,11.151776,6600
2716_17,Ronzone-Sud,,46.419660,11.146720,6600
2717_17,Ruffrè-Bivio,,46.417474,11.166256,6610
2718_17,Ruffrè-Giordani,,46.419337,11.175865,6610
2719_17,Ruffre',,46.416263,11.176873,6610
2720_17,Ruffrè-Maso Valletta,,46.414455,11.185064,6610
2722_17,Mendola,,46.418340,11.204664,6630
2723_17,Passo Mendola,,46.416009,11.208159,6630
2724_17,Banco,,46.374469,11.069688,6510
2725_17,Casez,,46.375792,11.075892,6510
2727_17,Don,,46.389919,11.136609,6560
2728_17,Amblar,,46.395277,11.144171,6560
2730_17,Piano-Sanzeno,,46.369418,11.070060,6510
2731_17,Cis,,46.399465,11.003162,6700
2732_17,Cis-Sud,,46.397800,11.007481,6700
2734_17,Dambel,,46.405174,11.092372,6513
2735_17,Seio,,46.416811,11.126723,6514
2736_17,Caldes,,46.366173,10.943217,6280
2737_17,Cassana,,46.375715,10.960524,6270
2738_17,Tozzaga,,46.382041,10.971017,6250
2739_17,Bozzana,,46.388715,10.988650,6240
2740_17,Mollaro,,46.294585,11.074391,6170
2741_17,Tuenetto Bivio,,46.297304,11.080508,6171
2742_17,Dardine,,46.286258,11.082410,6172
2743_17,Priò,,46.289656,11.093724,6173
2744_17,Vervo',,46.307291,11.118663,6191
2745_17,Tres,,46.320117,11.094178,6191
2746_17,Taio,,46.321648,11.066397,6190
2747_17,Campodenno-Piazza,,46.258032,11.034519,6145
2748_17,Zambana-Statale 12,,46.150336,11.100145,1010
2749_17,Lago di Tovel,,46.264856,10.955009,6162
2750_17,Albergo Capriolo,,46.294769,10.974615,6161
2751_17,Mollaro-Parcheggio Ftm,,46.294247,11.067977,6170
2758_17,Pineta di Faedo,,46.197721,11.168364,6096
2759_17,Dovena,,46.454276,11.130506,6686
2760_17,Raina,,46.458930,11.119578,6686
2761_17,Hacleri-Sp 135 Km. 8.8,,46.113461,11.324593,4143
2762_17,Hacleri-Sp 135 Al Km. 9.9,,46.116172,11.333322,4143
2763_17,Ala-Albergo Città di Ala,,45.754163,10.997392,3346
2766_17,Dosso-Vallarsa,,45.819708,11.092332,3159
2767_17,Staineri,,45.797292,11.093556,3162
2768_17,Cavalese-Via Degli Artigiani,,46.288964,11.448017,1070
2769_17,Cavalese-P.Zza Francescani,,46.292004,11.458578,1070
2770_17,Barco Zechinati,,46.000894,11.329780,4310
2771_17,Moncovo,,46.263613,11.060231,6150
2772_17,Segonzone Bivio,,46.250070,11.031818,6144
2775_17,Arco Viale Rovereto,,45.913004,10.897338,3520
2776_17,Cles-Piazza Fiera,,46.367852,11.034999,6220
2778_17,Mostizzolo,,46.394209,11.013361,6230
2779_17,Cles-Viale Trento,,46.356259,11.038093,6220
2780_17,Terzolas-Bivio Paese,,46.358263,10.925114,6300
2782_17,Ponte Oliveti,,46.042757,10.962265,2121
2783_17,Villini,,46.417202,11.190257,6630
2784_17,Geroli,,45.865050,11.170175,3213
2785_17,Bivio Passo Valles,,46.308565,11.751183,1223
2786_17,S.Giacomo di Brentonico,,45.798773,10.919616,3408
2787_17,Passo S.Valentino,,45.783110,10.912169,3409
2788_17,Arco S.Caterina Poli Reg.,,45.909505,10.870503,3520
2790_17,Arco S.Caterina Poli Regina,,45.909916,10.870985,3520
2792_17,Dro-Ss.45-Hotel Eden,,45.970063,10.923463,2127
2794_17,Masi di Mezzo,,46.028019,11.227058,4250
2795_17,Maso Canela,,46.022087,11.227065,4250
2796_17,Canale di Pergine V.,,46.043635,11.227039,4200
2798_17,Vignola,,46.044539,11.277071,4135
2799_17,M.Terlago Inc.V.Paganella,,46.110766,11.038259,2023
2800_17,Vigo Cavedine-V.Capitello,,45.981509,10.977915,2054
2801_17,Montesover-Tornante,,46.219136,11.325826,4070
2803_17,Sornello-Piazzale Ex Dogana,,46.182122,11.122684,0944
2806_17,Ponte Ragoli R,,46.050613,10.785158,2240
2807_17,Battisti,,46.131142,11.361705,4126
2808_17,Pergolese-V.Dell'agricoltura,,46.032987,10.959916,2122
2809_17,Pergolese-Inc Via Dos Dei Pini,,46.030486,10.958820,2122
2810_17,Lavarone C.-Ht. Monte Rust,,45.943991,11.248563,3850
2811_17,Palù Del F.-Loc.Tolar Civ. 69,,46.130616,11.357967,4126
2812_17,Valda-P.Zza Melari. 4,,46.208059,11.256599,1080
2813_17,Grumes-Via Fontanelle,,46.219672,11.293096,1081
2814_17,Capriana-Loc. Miravalle,,46.261787,11.343111,1084
2816_17,Daiano-Ss620 Bivio Per Daiano,,46.299754,11.452598,1160
2817_17,Canal S.Bovo-Loc. Giaroni,,46.161766,11.714310,5117
2819_17,S.Martino di C.-Motel Taufer,,46.252478,11.802392,5180
2820_17,Sardagna-Rotatoria,,46.065664,11.095495,2620
2825_17,Folgaria-P.Le N.Unite,,45.913941,11.170211,3045
2827_17,Mezzomonte-Az. Agricola,,45.919873,11.141608,3042
2828_17,Costa-Via A.Maffei,,45.920588,11.193240,3048
2829_17,Sega,,45.865707,11.175619,3213
2830_17,Fai Paganella-A.Stella Alpina,,46.180891,11.071658,6135
2831_17,Molveno-Via Nazionale 73,,46.145717,10.971196,0956
2834_17,Mezzocorona-Furlan Legnami,,46.224367,11.133563,6111
2835_17,Mezzocorona-Via Borgo Nuovo,,46.217154,11.127366,6110
2837_17,Rallo-Maierhofer,,46.351432,11.053898,6210
2838_17,Coredo-Distributore Repsol,,46.347121,11.079379,6501
2839_17,Tavon,,46.363029,11.095308,6501
2840_17,Fontanefredde,,46.330364,11.374273,1058
2841_17,S.Lugano,,46.311565,11.394020,1058
2842_17,Sporminore Bivio,,46.240719,11.056909,6123
2847_17,S.Michele A/Adige,,46.193212,11.133220,6110
2871_17,Assizzi,,46.050572,11.257424,4127
2894_17,Canale di Pergine Valsugana,,46.042118,11.229602,4200
2899_17,Trento Nord,,46.095106,11.116921,0001
2918_17,Zona Industriale Spini,,46.118254,11.096919,0937
2941_17,S.Michele A/A.-Ist. Agrario,,46.194089,11.135444,6110
3002_17,Cembra-Polo Scolastico,,46.172897,11.223458,1078
3019_17,Pian Del Gac,,46.130680,11.204216,1111
3037_17,Predazzo-I.T.C.,,46.310910,11.599020,1220
3039_17,Castelir di Bellamonte,,46.312766,11.687638,1221
3057_17,Pozza di Fassa-Istituto Arte,,46.423109,11.682661,1300
3074_17,Laghi di Lamar,,46.127872,11.061505,2023
3080_17,Vezzano-Polo Scolastico,,46.079573,11.001983,2040
3082_17,Vanza Sp50,,45.856329,11.079678,3155
3109_17,Trento-Bellevue,,46.053214,11.136442,0001
3122_17,Piazzo di Segonzano,,46.182086,11.252866,1115
3124_17,Rovereto-Via Zeni,,45.890480,11.032628,3100
3134_17,Molina di Ledro-Sc.Elementare,,45.870840,10.774516,2144
3141_17,Enguiso-Scuola Elementare,,45.904428,10.729468,2147
3149_17,Tiarno di Sopra-Sc. Elem.,,45.888920,10.670416,2156
3154_17,Pranzo,,45.922618,10.818157,2189
3155_17,Pranzo Via Dei Castagni,,45.924838,10.817236,2189
3156_17,Pranzo Via Pernici,,45.921378,10.820257,2189
3159_17,Campi,,45.911113,10.811476,2189
3160_17,Campi Bivio Sp 37,,45.924332,10.814498,2189
3161_17,Deva,,45.908537,10.833595,2179
3167_17,P.Arche-Sc.Medie,,46.035620,10.870542,2180
3172_17,Favrio,,46.000487,10.856972,2185
3192_17,Andogno,,46.066487,10.895390,2216
3213_17,Tione-Via Circonvallazione 65,,46.036584,10.728160,2290
3244_17,Bocenago-Paese,,46.120707,10.760843,2420
3248_17,Porte di Trambileno,,45.883438,11.052388,3230
3249_17,Porte di Trambileno-Chiesa,,45.883305,11.053762,3230
3291_17,S.Ilario I.T.I.,,45.910555,11.041964,3100
3308_17,Rovereto Scuola Ex Edili,,45.879909,11.035312,3100
3319_17,Tret Nord,,46.480185,11.142110,6581
3325_17,Rovereto-Ist. Don Milani,,45.894292,11.032808,3100
3328_17,Rovereto-Sc.Elementari R.Elena,,45.888073,11.039361,3100
3331_17,Rovereto-Sc.Medie Negrelli,,45.896365,11.043286,3100
3334_17,Rovereto-Studentato Rosminiano,,45.882186,11.042934,3100
3341_17,Villa Lagarina-Sc.Medie,,45.917866,11.031735,3101
3382_17,Acheni,,45.836615,11.076857,3175
3392_17,Noriglio "Distributore",,45.887519,11.059261,3201
3401_17,Valle di Terragnolo,,45.881116,11.149756,3209
3436_17,Mori-Sc.Elementare,,45.852621,10.973184,3310
3437_17,Mori-Sc.Medie,,45.852589,10.984853,3310
3490_17,Taio-Plesso Scolastico,,46.322115,11.069508,6190
3494_17,Brentonico-Via Calzolari,,45.819109,10.956539,3407
3497_17,Polsa,,45.781205,10.940804,3410
3555_17,Parlo,,46.180634,11.251654,1115
3558_17,Roncafort,,46.101275,11.101580,0001
3576_17,Baselga di Pinè-Sc.Medie,,46.128335,11.244239,4025
3597_17,Pergine V. Bivio Via Industria,,46.069437,11.237763,4100
3606_17,Pergine V.-Scuole Andreatta,,46.068639,11.245424,4100
3623_17,S.Vito di Pergine,,46.035145,11.220262,4130
3628_17,Buss,,46.088307,11.225966,4134
3645_17,Levico T.-Ex Scuole Medie,,46.009370,11.305503,4300
3655_17,Marter Via Nazionale 24,,46.037113,11.398467,4370
3659_17,Maso Rozza,,46.063889,11.402756,4425
3666_17,Madice-Loc. Maton Civ. 1,,46.020909,10.826261,2199
3682_17,Maso Scali,,46.059190,11.415610,4420
3683_17,Maso Sasso,,46.063370,11.426860,4430
3684_17,Maso Lagon,,46.061320,11.415315,4425
3685_17,Maso Montibelleri,,46.064484,11.408691,4425
3686_17,Maso Fraineri,,46.062870,11.397734,4425
3687_17,Maso Uelleri,,46.059855,11.398560,4429
3688_17,Maso Vestri,,46.057910,11.403763,4431
3689_17,Maso Zanorgi,,46.055116,11.398768,4433
3690_17,Molini di Roncegno,,46.054166,11.397305,4433
3691_17,Maso Cadenzi,,46.051761,11.401260,4433
3716_17,Arsiè,,45.978698,11.756945,5030
3746_17,Feltre Boscariz,,46.030415,11.902424,5010
3758_17,Imer-Loc. Casa Bianca 10,,46.147268,11.803997,5110
3767_17,Revedea,,46.152845,11.745976,5115
3776_17,Tonadico-Scuole Elementari,,46.179527,11.835660,5140
3779_17,Malè-Ex Stazione Ftm,,46.352922,10.914909,6300
3786_17,Siror Centro Sportivo,,46.190727,11.828292,5160
3805_17,Mezzocorona Scuole Medie,,46.213267,11.117117,6110
3806_17,Mezzolombardo Autostile,,46.206818,11.095894,6120
3808_17,Mezzolombardo Sc. Media,,46.212302,11.097218,6120
3809_17,Mezzolombardo Via Milano,,46.208839,11.093689,6120
3813_17,Castelletto di Ton,,46.247143,11.062585,6123
3816_17,Dercolo,,46.250410,11.044558,6144
3817_17,Denno Scuola Media,,46.270785,11.048638,6151
3819_17,Cles Centro Sportivo,,46.344184,11.026766,6220
3869_17,Ala Scuole,,45.756437,11.001202,3346
3870_17,Maso Tingherla,,46.067712,11.314825,4116
3871_17,Porte-Dosso,,45.881437,11.054570,3230
3872_17,Rovereto-Via S.Maria. 66,,45.884662,11.042891,3100
3873_17,Rovereto-Via Zugna Civ. 48,,45.884392,11.049382,3100
3895_17,Cavizzana Bivio,,46.371565,10.952171,6270
3896_17,Maso Zonti,,46.055367,11.401856,4431
3901_17,Bolentina Sud,,46.344970,10.889468,6302
3910_17,Le More,,46.404624,10.836070,6324
3911_17,Rabbi Bagni-Vecchia Fonte,,46.407744,10.810045,6327
3916_17,Canal S.Bovo-Sc.Unica A Lausen,,46.151269,11.734022,5117
3917_17,Mollaro Ss,,46.294139,11.067207,6170
3918_17,Segno Ss,,46.304717,11.071514,6180
3928_17,Riva V.Carducci H.Liberty,,45.885755,10.846558,0960
3929_17,Levico Terme-Ris. Scarano',,46.016184,11.314365,4300
3931_17,Terme di Vetriolo,,46.041561,11.309725,4331
3939_17,Tuenno-Bivio Val di Tovel,,46.325236,11.021363,6155
3942_17,Tamburello,,46.290963,10.974556,6161
3943_17,Glare,,46.280241,10.963734,6161
3944_17,Vezzano Apt,,46.075558,10.996341,2040
3946_17,Ala-Stazione Fs,,45.759057,10.996513,3346
3947_17,Vò Sinistro-Passaggio Livello,,45.734317,10.957314,3358
3950_17,Lausen P.Le Impresa Grisotto,,46.150588,11.735762,5117
3951_17,Lausen Loc. Pradel,,46.149687,11.738813,5117
3956_17,Pietramurata-Carr.Toccoli,,46.027956,10.945693,2125
3958_17,Aste Basse,,45.790320,11.096300,3162
3959_17,Tesero-Via Roma,,46.289215,11.502906,1190
3960_17,Trento-Via Guardini,,46.091632,11.119298,0001
3961_17,Cavalese-Palacongressi,,46.288954,11.465621,1070
3967_17,Trento-Cavalcavia S.Lorenzo,,46.070045,11.116683,0001
3969_17,Pietramurata-Stab.Mecc.Sarca,,46.025811,10.944803,2125
3970_17,Torcegno-Maso Mocchi,,46.073766,11.444568,4464
3971_17,Vezzano Sud,,46.076071,10.996890,2040
3972_17,Moncovo-Paese,,46.260329,11.063002,6150
3974_17,Trento-Via Sardagna Civ. 104,,46.072035,11.099473,0001
3981_17,Primolano-Ex Staz. Fs,,45.965690,11.700902,4490
3982_17,S.Margherita-Via Trento,,45.793670,11.022814,3343
3995_17,Pomarolo-Via Rovereto,,45.923522,11.041614,3103
3996_17,Sant'ilario Via Lagarina,,45.910313,11.039879,3100
4001_17,Sanzeno Nord-Museo Retico,,46.369702,11.080212,6510
4003_17,Romeno-Civ. 38,,46.399287,11.127024,6550
4004_17,Romeno-Caseificio,,46.401119,11.128721,6550
4006_17,Bocenago,,46.116993,10.757671,2420
4007_17,Cavareno-Centro Commerciale,,46.412956,11.139657,6560
4009_17,Cimego-Albergo Aurora,,45.912809,10.619455,2310
4010_17,Zortea-Masi di Mezzo,,46.163848,11.747301,5116
4011_17,Agnedo-Strada Statale,,46.048313,11.529300,4451
4013_17,Cavedago-Albergo Olisamir,,46.185905,11.032963,6133
4016_17,Raut-Sp 203 Dif. Civ. 1,,46.257106,11.071562,6125
4018_17,Sarnonico-Agip,,46.426919,11.141869,6570
4019_17,S.Floriano,,46.283385,11.240012,1040
4020_17,Vaneze-Sp 85 Civ. 20,,46.052109,11.073303,2640
4021_17,Lisignago-Campo Sportivo,,46.158861,11.192014,1077
4024_17,Masi D'avio Ss.12 Civ. 2,,45.719509,10.940406,3354
4026_17,Truzzi-Trattoria,,46.239470,11.062362,6123
4027_17,Ravazzone-Via Del Dazio,,45.863119,10.997312,3312
4028_17,Viarago Via Vinciguerra 33,,46.080590,11.264625,4112
4029_17,Loc. Cazzanelli di Cornè,,45.805462,10.979111,3405
4030_17,Pieve di Ledro-Via Nuova,,45.890616,10.727428,2146
4032_17,Mezzolombardo Corso Del Popolo,,46.214318,11.091540,6120
4038_17,Arco P. Foro Boario,,45.918164,10.887945,3520
4040_17,Arco Via Frumento,,45.916303,10.876895,3520
4041_17,Arco Via Marconi,,45.917805,10.885160,3520
4047_17,Pasina,,45.903954,10.849881,2136
4060_17,Varignano Via Grazie/Veneto,,45.916255,10.858904,3520
4061_17,Vigne Cimitero,,45.919409,10.863098,3520
4063_17,Covelo-Incr. Sp18,,46.093539,11.016990,2023
4066_17,Mattarello-Via Nazionale,,46.012407,11.130568,3010
4068_17,Mattarello-Regole,,46.013560,11.131504,3010
4069_17,Arco V.Cesare Battisti,,45.918508,10.882411,3520
4070_17,Pergolese-Via Lungolago 3/10,,46.024706,10.959946,2122
4071_17,Pergolese-Via Lungolago 29,,46.021562,10.959047,2123
4072_17,Lago Cavedine-Civ. 7,,46.017361,10.958937,2058
4074_17,Lago Cavedine-Civ. 21,,46.012118,10.957099,2058
4076_17,Lago di Cavedine-Predorighi,,45.994059,10.951554,2058
4077_17,Lago di Caveine-Trebi,,45.990709,10.942695,2058
4078_17,Lago di Cavedine-Bv.Lastoni,,46.003468,10.956083,2058
4079_17,Lago di Cavedine-Civ. 25,,46.007505,10.956884,2058
4081_17,Arco-Autostaz.,,45.916407,10.882629,3520
4082_17,Aste Basse-Dir. S.Anna,,45.790542,11.096463,3162
4084_17,Rovereto C.So Rosmini 61,,45.890963,11.037817,3100
4088_17,Mori Via Del Garda. 63,,45.851830,10.972048,3310
4091_17,Rovereto-Santuario M.Del Monte,,45.879717,11.041039,3100
4100_17,Via Dei Colli-Tornante,,45.888407,11.054878,3201
4101_17,Via Dei Colli Scol. P.Le Pat,,45.888409,11.051772,3201
4108_17,Riva V.Le Rovereto Coop,,45.881839,10.854328,0960
4115_17,Trento-Via Zambra-Ist.Arte,,46.092360,11.116454,0001
4116_17,Trento-Via Zambra-Top Center,,46.091190,11.117910,0001
4120_17,Rovereto Via Saibanti,,45.888137,11.036760,3100
4141_17,Capriana-Maso Conti,,46.256856,11.332910,1084
4145_17,Carano-Via Paredon/Cimana,,46.294217,11.438876,1070
4146_17,Mezzomonte Civ. 23-Fontana,,45.918043,11.134534,3042
4147_17,Mezzomonte Finito Paese Km 6.3,,45.918456,11.138418,3042
4148_17,Cornè Bivio Per Saccone,,45.810266,10.979268,3405
4149_17,Storo-Via Sette Civ. 8,,45.848472,10.574439,2314
4153_17,Lausen-Bar Lagorai,,46.148563,11.735015,5117
4154_17,Pergine V.-C.Intermodale,,46.063360,11.231388,4100
4155_17,Feltre Pasquer,,46.021084,11.919118,5010
4156_17,S.Francesco-Maso Prigheli,,46.105438,11.314606,4141
4163_17,Candriai-Sp 85 Km. 9.4,,46.062236,11.079694,2630
4164_17,Zivignago-Paese,,46.066737,11.255123,4100
4165_17,Molina di Fiemme-Via Cembra 47,,46.268508,11.410247,1088
4167_17,S.Antonio.Di Mav. Maso Mistrin,,46.193516,10.792873,2470
4178_17,Zona Industriale "Luxottica",,45.864912,11.017706,3100
4179_17,Rov.Z.Ind. "Viale Industria",,45.871712,11.020613,3100
4180_17,Mori-Terranera-Farmacia,,45.850002,10.980961,3310
4181_17,Romeno Via Alla Piena Civ. 12,,46.397222,11.124342,6550
4189_17,Costasavina Via Della Uta,,46.059810,11.217256,4137
4192_17,Rov.Z.Ind. "Rovercenter",,45.863789,11.027037,3100
4194_17,Terlago Via Per Vezzano 9,,46.099436,11.032602,2021
4195_17,Dietrobeseno-Chiesetta,,45.925137,11.120464,3041
4198_17,Rallo-Via S.Gioan,,46.345334,11.048564,6210
4199_17,Credai,,46.342544,11.127381,6503
4200_17,Vervo'-Via Trento Civ. 8,,46.308437,11.116045,6191
4213_17,Ronzone Nord,,46.426364,11.159405,6600
4216_17,Cles-Negozio Mascotti,,46.361669,11.037271,6220
4217_17,Cles-Ex Bentivoglio,,46.358211,11.037125,6220
4218_17,Cles-Ex Dorigoni,,46.352469,11.046660,6220
4220_17,Cogolo Bar Miki,,46.352298,10.690519,6405
4221_17,Peio Area Faunistica,,46.358569,10.666184,6407
4224_17,Volano-Via Des Tor,,45.917441,11.057459,3070
4225_17,Cavareno Via De Zinis,,46.407357,11.134415,6560
4227_17,Banco Sc.Elem.,,46.374679,11.071767,6510
4228_17,Rovereto Z.Ind.V.Di Vittorio34,,45.863112,11.020759,3100
4229_17,S.Martino Campo Sportivo,,45.760367,11.008557,3346
4230_17,Revò P.Madonna,,46.390909,11.057644,6655
4231_17,Trento Casa Girelli,,46.048138,11.131115,0001
4232_17,Lover-Hotel Lover,,46.250121,11.025891,6144
4233_17,Flavon Nord,,46.301834,11.028059,6153
4236_17,Mezzolombardo V.Trento 31,,46.192662,11.098790,0951
4237_17,Maso Part-Magazzino S.O.R.,,46.188422,11.106183,0951
4238_17,Maso Quadrifoglio,,46.173866,11.105303,0948
4239_17,Loc. Ischia Civ. 4,,46.173243,11.105461,0948
4243_17,Rovereto Via Halbherr,,45.885043,11.037665,3100
4244_17,Seio Paese,,46.418672,11.127114,6514
4245_17,Seio Centro Sportivo Verde,,46.411721,11.118516,6514
4246_17,Malosco Segheria Fanti,,46.430340,11.151857,6590
4247_17,Malosco H.Bucaneve,,46.431885,11.150121,6590
4252_17,Castello di F. Nucleo Stazione,,46.287189,11.421064,1060
4257_17,Egna-Parcheggio Rio Trodena,,46.320861,11.274668,1050
4258_17,Mezzomonte di Sotto Al Km 5.6,,45.919387,11.134856,3042
4261_17,Rovereto-Ospedale,,45.881782,11.037840,3100
4262_17,Rovereto-Parco Ferrari.,,45.877911,11.033332,3100
4263_17,Lizzana-Scuole,,45.870476,11.031082,3100
4264_17,Lizzana,,45.866459,11.029938,3100
4265_17,Lizzana-Rovercenter,,45.864119,11.028967,3100
4267_17,Marco Via Ii Novembre 30,,45.847797,11.011652,3341
4268_17,Marco-Officina,,45.843877,11.008605,3341
4269_17,Marco,,45.841471,11.008232,3341
4271_17,Marco-Zona Ind.Le,,45.825688,11.010956,3341
4272_17,Serravalle,,45.809511,11.014713,3342
4273_17,Serravalle Via Trento/Vanga R,,45.800938,11.023579,3343
4274_17,S.Margherita,,45.796906,11.024864,3343
4277_17,Marani,,45.781087,11.015930,3344
4278_17,Marani-Via Campagnole,,45.777947,11.014511,3344
4279_17,Marani-Fabbrica Bvm,,45.773563,11.012584,3344
4280_17,Marani-Centrale Elettrica,,45.769911,11.010405,3344
4282_17,Ala-Via Malfatti,,45.758386,11.000886,3346
4283_17,Ala-Ospedale Bivio,,45.756530,10.998930,3346
4285_17,Sfruz-Via Smarano 16,,46.339372,11.114523,6503
4286_17,S.Orsola Bivio Loc. Dosi,,46.093569,11.283177,4122
4288_17,Mezzolombardo "Prema",,46.202918,11.098520,6120
4289_17,M.Bardo"Colonna Vasellame",,46.200360,11.100587,6120
4290_17,Nave San Rocco-Municipio,,46.166820,11.107211,0947
4291_17,Samone-S.P. 39 Al Km 1.4,,46.079260,11.523472,4497
4292_17,Canal S.Bovo Loc.Al Lago,,46.167103,11.710155,5117
4293_17,Tonadico-Madonna Della Luce,,46.186456,11.850412,5140
4295_17,Siror-Bivio Loc. Zocaril,,46.204414,11.818547,5160
4297_17,Palù Del F.-Loc.Tolar Civ. 70,,46.129214,11.355266,4126
4298_17,Scancio di S.-Bivio Nord,,46.193317,11.260220,1118
4302_17,Folgaria-Palasport,,45.913508,11.173611,3045
4303_17,Olle-Via Per Olle Civ. 55,,46.044314,11.460639,4410
4304_17,Fornaci Via Cimirlo 2/4,,46.061772,11.227006,4137
4307_17,Merlonga,,46.349288,11.110746,6503
4308_17,Smarano Via Schwarz,,46.345071,11.111494,6503
4309_17,Ruffre'-Cimitero,,46.414688,11.180441,6610
4310_17,Preore-Loc. Molina,,46.047774,10.764534,2240
4311_17,Condino-Loc. Mon,,45.865415,10.578113,2311
4312_17,Vigo di Fassa-Museo Ladino,,46.423145,11.679969,1280
4314_17,Pra Da Lac,,45.894612,10.962039,3389
4319_17,Sarnonico-Sc. Elementari,,46.419829,11.138403,6570
4323_17,S.Cristoforo-Fs,,46.039761,11.234173,4200
4325_17,Roncegno-Staz. Fs,,46.036514,11.398673,4370
4326_17,Volano Ss 12,,45.917129,11.056339,3070
4330_17,Garniga T. Loc. Gatter,,45.991139,11.080773,3690
4331_17,Cavalese-V.Matteotti Km.22,,46.296021,11.455940,1070
4332_17,Roncegno-Municipio,,46.050702,11.409642,4380
4333_17,Prade Via Villanuova 1,,46.157067,11.742961,5113
4334_17,Sarnonico Via C.Battisti 3,,46.423892,11.141542,6570
4335_17,Brez Via 4 Novembre 15,,46.429400,11.102788,6675
4337_17,Maso Eccher,,46.021358,11.217837,4250
4338_17,Campi,,45.911134,10.811283,2189
4340_17,Maso Beberi,,46.061469,11.419769,4425
4341_17,Doss,,45.996897,10.840787,2185
4344_17,Tezze Via Nazionale,,45.987386,11.674140,4457
4346_17,Pergine-Via Dell'angi,,46.049161,11.234423,4100
4348_17,Serso Centrale Idroelettrica,,46.072714,11.247788,4120
4350_17,Virti-Bar Giardino,,45.941442,11.232604,3850
4351_17,Cela-Aguai-Paese,,46.301237,11.404072,1070
4376_17,Lenzumo Via U.D'italia 2,,45.909332,10.726551,2147
4379_17,Serravalle Via G.Cantore 21,,45.806690,11.017468,3342
4381_17,Predazzo Via Fiamme Gialle,,46.303587,11.593642,1220
4383_17,S.Michele Sp 58 Convitto,,46.195558,11.134840,6110
4384_17,Fondo-Via 4 Novembre,,46.439968,11.132872,6580
4385_17,Sfruz Via Smarano "Segheria",,46.340768,11.112971,6503
4387_17,Tassullo-Ss 43 Cementificio,,46.349409,11.055871,6210
4388_17,Levico Terme-C.So Centrale 15,,46.008563,11.303584,4300
4389_17,Pian Dei Pradi-Rotatoria,,45.978337,11.236205,3770
4390_17,Ponte Arche-Via Prati 8,,46.033789,10.870138,2180
4391_17,Ponte Arche-Via Ballino,,46.031286,10.868637,2180
4392_17,Campo Lomaso-Inizio Paese,,46.027169,10.868018,2181
4393_17,Fiave'-Bivio Cornelle,,46.005605,10.832086,2185
4394_17,Stenico Loc. Cros Da Val,,46.051741,10.864960,2213
4406_17,Bastianelli Sp 124 Km. 3.2,,46.260386,11.084700,6124
4412_17,Moscheri Civ. 23/B,,45.872262,11.071665,3183
4413_17,Castello di Fiemme Via Roma,,46.285237,11.438522,1060
4415_17,Cazzano Via Degasperi/Peluso,,45.819169,10.967006,3407
4417_17,Vigo di Fassa-Strada Neva,,46.418311,11.676947,1280
4418_17,Biacesa-Via Nuova,,45.865720,10.805986,2142
4426_17,Rovere' D/Luna-Trentinalatte,,46.252438,11.184670,6113
4432_17,Cicona-Albergo Cima D'asta,,46.160803,11.744054,5114
4433_17,Campeggio Al Plan,,46.408452,10.795977,6327
4434_17,Rovere' D/Luna-Campo Sportivo,,46.248808,11.180110,6113
4437_17,Pera di Fassa-Seg.Vaiolet,,46.438802,11.692741,1310
4439_17,Folgaria Via N.Unite Civ. 38,,45.913960,11.183378,3045
4440_17,Lamon,,46.046756,11.748691,5060
4441_17,Zavena di Lamon,,46.057406,11.759861,5060
4442_17,Oltra di Lamon,,46.064586,11.761671,5060
4443_17,Campagna di Lamon,,46.052641,11.751259,5060
4444_17,Lamon Bove,,46.042916,11.748391,5060
4445_17,Lamon Bivio Piei,,46.035406,11.749641,5060
4446_17,Pian Del Vescovo,,46.034556,11.755321,5060
4447_17,Lamon-Distributore,,46.031566,11.756641,5060
4449_17,Canal S.Bovo-Via Roma,,46.156076,11.731748,5117
4452_17,Tomaselli Incr. Via Arcevenna,,46.070403,11.524310,4530
4456_17,Santa Croce Sp 5,,46.024787,10.836441,2198
4457_17,V.Cavedine-Via S.Udalrico,,45.975251,10.974969,2054
4459_17,Fondo-Strada Delle Palade 46,,46.441158,11.140422,6580
4460_17,Rovereto "Liceo Rosmini",,45.895066,11.043407,3100
4461_17,Castelfondo-Castello,,46.448768,11.123872,6686
4466_17,Cavareno Via Roma Civ. 20,,46.405818,11.135391,6560
4467_17,Rallo-Via Nuova Civ. 103,,46.341089,11.045511,6210
4481_17,Pergine Vals. Susà-V.Pomarol,,46.054240,11.230620,4100
4482_17,Nosellari-Via Prati,,45.928233,11.253485,3830
4483_17,Tonale-Colonia Vigili,,46.252686,10.538942,6416
4486_17,Feltre Deposito,,46.010366,11.881119,5010
4491_17,Pietramurata.,,46.017091,10.942043,2058
4492_17,Cles-Via Ruatti I,,46.355999,11.030947,6220
4493_17,Cles-Via Ruatti Ii,,46.359118,11.031140,6220
4495_17,Pergine-V.Marconi 195,,46.067317,11.251306,4100
4496_17,Pergine-Via Spolverine,,46.065206,11.247419,4100
4497_17,Pergine-V.Baratieri Teatro,,46.063956,11.242351,4100
4516_17,Pergine-V.Padova,,46.053710,11.242957,4100
4519_17,Valcanover-Chiesetta,,46.023185,11.228453,4250
4527_17,Valcanover-Ortofrutta Eccher,,46.030262,11.228350,4250
4528_17,Maso Tasin,,46.027052,11.222160,4250
4529_17,Maso Posser,,46.026158,11.219088,4250
4530_17,Maso Pergher,,46.018407,11.221478,4250
4531_17,Maso Dolzer,,46.029031,11.224062,4250
4532_17,Maso Begher,,46.021651,11.221750,4250
4533_17,Valcanover "Ex Lanterna",,46.033103,11.229407,4250
4535_17,Valcanover "Casa Sociale",,46.025252,11.228626,4250
4540_17,Viarago Bivio Cittadella,,46.085408,11.276139,4112
4541_17,Susa'-Via Dei Ciliegi,,46.047837,11.218768,4130
4572_17,Marco Via Ghiffa,,45.840142,11.009534,3341
4613_17,Sorne-Troticoltura,,45.806259,10.952151,3413
4616_17,Povo Via Mesiano,,46.064943,11.141679,0001
4640_17,Campo Tassullo,,46.331168,11.052569,6210
4653_17,Fraveggio Bivio Loc.Castin,,46.077934,10.994306,2040
4664_17,Nomi-Sp 90 Tre.Cur.T.,,45.935963,11.088317,3105
4666_17,Moena-Via Lowy 14-16,,46.375484,11.657830,1250
4670_17,Breguzzo-Loc. Fass Civ. 210,,46.011300,10.701938,2293
4671_17,Brusago-Via D.Alighieri 12,,46.178452,11.324666,4060
4678_17,Vervo'-Scuola Materna,,46.307456,11.121384,6191
4679_17,Pergine Vals.-Sc.Garbari,,46.066251,11.229915,4100
4684_17,Folgaria-Via Filzi 41,,45.911216,11.180988,3045
4686_17,Malosco Via Fanch,,46.434784,11.142386,6590
4687_17,Cembra-Loc. Predole 23/2,,46.169154,11.209925,1078
4688_17,Livo-Sp 6 Al Km 6,,46.432701,11.019009,6720
4691_17,Pranzo-Ex Cabina Enel,,45.921668,10.820718,2189
4693_17,Cagno'-Terrazza Dei Sapori,,46.393652,11.034126,6650
4695_17,Segno-V.Nazionaletrentingrana,,46.299073,11.069600,6170
4697_17,Zambana-Statale 12-Rotatoria,,46.152359,11.101232,1010
4699_17,Taio Fraz. Torra Via S.Eusebio,,46.301812,11.080325,6180
4701_17,Terres Loc. Tresenga,,46.320236,11.014463,6155
4702_17,Segno Piazza E.Chini,,46.306283,11.075495,6180
4704_17,Villazzano Fs-P/Golfi Urbani,,46.044756,11.139690,0001
4708_17,Pergine-V.Marconi C.Riposo,,46.064770,11.242578,4100
4709_17,Pergine-V.Marconi Itea,,46.066205,11.246528,4100
4716_17,Passo Cereda Ss 347 Km7.2,,46.191933,11.896861,5143
4720_17,Malè Scuola Elementare,,46.351617,10.915120,6300
4721_17,Rovereto-Ist. Veronesi,,45.891286,11.034323,3100
4722_17,Tres Via Nazionale 33/24,,46.322670,11.092418,6191
4724_17,Brustolotti,,45.755971,11.016397,3335
4725_17,Muravalle,,45.747909,11.038053,3336
4726_17,Ronchi di Ala,,45.738932,11.065749,3337
4729_17,Calieri,,45.742258,11.057554,3336
4730_17,Ala-Via Perlè,,45.758767,11.006905,3346
4734_17,Tassullo-Scuola Materna,,46.334844,11.051888,6210
4735_17,Riva Del G Vle Dante Alighieri,,45.886255,10.844525,0960
4737_17,Riva D/Garda Viale Dei Tigli 8,,45.890465,10.843014,0960
4738_17,Arco Via Battisti 4,,45.918381,10.882459,3520
4739_17,Brione Campeggio,,45.881518,10.861895,0960
4740_17,Riva V.Rovereto/Pascoli 3,,45.884957,10.849147,0960
4741_17,Arco Via Mantova Cimitero,,45.911666,10.881381,3520
4742_17,Riva V.Rovereto/Pascoli,,45.885012,10.849033,0960
4743_17,Riva V.Rovereto Dif. Coop,,45.881612,10.854462,0960
4746_17,Arco Via Mantova Dif.Cimitero,,45.911738,10.881409,3520
4747_17,Riva D/Garda V.Le Dei Tigli 11,,45.890639,10.842853,0960
4748_17,Pavillo-Via De Le Bas Cere,,46.329184,11.042764,6210
4749_17,Riva Del G Vle Dante Alighieri,,45.886213,10.844356,0960
4758_17,Riva Del G. Via E. Modl,,45.893901,10.852615,0960
4765_17,Riva Del G. Via Oleandri 24,,45.899534,10.844359,0960
4776_17,Maso Uelleri,,46.057901,11.400298,4429
4778_17,Maso Gionzeri,,46.056818,11.407724,4382
4779_17,Maso Sasso,,46.061239,11.424233,4430
4780_17,Vestone,,45.708110,10.403516,2330
4781_17,Lavenone,,45.738956,10.437543,2332
4782_17,Idro,,45.734609,10.458099,2334
4783_17,Anfo,,45.766240,10.492104,2336
4786_17,Loc. Ferri,,45.740039,11.061804,3337
4788_17,Ala Via Fornace,,45.757754,11.011794,3346
4791_17,Covelo Via Villa Bassa,,46.098486,11.022229,2023
4793_17,Facendi V.S.Antonio-Capitello,,46.221460,11.317781,1123
4796_17,Costasavina Via S.Martino,,46.061224,11.220028,4137
4797_17,Costasavina Via S.Martino 27,,46.060681,11.225682,4137
4801_17,Coredo-Segheria Biasi,,46.351546,11.098083,6501
4802_17,Trento Forte Bus De Vela,,46.084939,11.070058,2010
4803_17,Cagno'-Via Nazionale 58,,46.392655,11.044131,6650
4805_17,Segno Via Sonora Civ. 34,,46.304725,11.072060,6180
4806_17,Denno Via Colle Verde,,46.272809,11.048208,6151
4809_17,Aldeno-Maso Canova Sud,,45.960076,11.092721,3640
4810_17,Chiesurone di Pilcante,,45.787117,11.012143,3356
4812_17,Carpeneda-Acquedotto,,45.916728,11.149958,3044
4813_17,Rovereto-Stazione Trenitalia,,45.891820,11.034136,3100
4817_17,Carano Via Carano 79,,46.290832,11.449060,1070
4824_17,Vestone-Loc. Capparola,,45.714637,10.412930,2330
4825_17,Lavenone-Via Nazionale,,45.724764,10.428774,2332
4826_17,Lavenone-Zona Industriale,,45.731256,10.434312,2332
4827_17,Idro-Loc. Tre Capitelli,,45.751515,10.479574,2334
4828_17,Anfo-S.P. Km. 50.7,,45.788633,10.500408,2336
4829_17,Anfo-Locanda Loc. S.Antonio,,45.799373,10.503631,2336
4830_17,Loc. San Giacomo"Pizzeria",,45.808932,10.509783,2323
4831_17,Ponte Caffaro-Via Caduti,,45.819870,10.524535,2323
4832_17,Ponte Caffaro-Via Caduti 214,,45.825015,10.530160,2323
4834_17,Vaneze-Via Del Lavachel,,46.055447,11.072394,2640
4835_17,Loc. San Giacomo,,45.813054,10.515905,2323
4844_17,Taio Via Roma. 62,,46.316919,11.069182,6190
4845_17,Taio Via Roma. 122,,46.315062,11.069839,6190
4847_17,S.Barbara,,45.896161,10.940914,3389
4850_17,Imer Via Meatoli,,46.148666,11.796557,5110
4852_17,Villini-Via Mendola 5,,46.417827,11.195583,6630
4856_17,Castelletto "Ponte Rinassico",,46.247843,11.062196,6123
4857_17,Centa Fraz. Valle,,45.964834,11.232628,3790
4858_17,Centa Fraz. Conci,,45.974350,11.244435,3790
4859_17,Canale-Via Delle Stonfe,,46.048812,11.233387,4100
4861_17,Premione-Via Alla Closura,,46.048034,10.871479,2212
4862_17,Predazzo-Loc. Fol,,46.322330,11.597912,1220
4863_17,Preghena-Sp 68 Bivio,,46.407458,11.011754,6720
4865_17,Croviana-Via Nazionale 174,,46.341182,10.900305,6310
4867_17,Canè,,46.119116,11.260806,4038
4868_17,Fiorè,,46.120680,11.265439,4038
4870_17,Tres Via Nazionale 12,,46.320661,11.093017,6191
4871_17,Romeno-Via S.Romedio,,46.391671,11.117453,6550
4874_17,S.Martino di C.-Via Pezgaiard,,46.259430,11.808832,0961
4879_17,Tezze-V. Masetto Vecchio,,45.997899,11.668582,4457
4880_17,Mezzolombardo-Bivio Fai,,46.223117,11.081667,6120
4881_17,Rovereto Via S.Giovanni Bosco,,45.891524,11.041678,3100
4882_17,Campi Loc.Zumiani,,45.913190,10.816147,2189
4886_17,Bordiana,,46.387216,10.981980,6240
4889_17,Zencheri,,45.881634,11.157096,3209
4891_17,Lamar-Ponte Avisio,,46.134630,11.110901,0937
4893_17,Malgolo-Via Al Castello 6,,46.384563,11.094848,6530
4894_17,Valda-Via Centrale 25,,46.210886,11.272480,1080
4895_17,Ronzone-Via 4 Novembre 44,,46.418925,11.145811,6600
4896_17,Dovena-Via Roma Civ. 4,,46.456546,11.127469,6686
4897_17,Dovena-Inizio Paese,,46.457487,11.125253,6686
4898_17,Denno-Via Marconi 46,,46.272566,11.052235,6151
4904_17,Garniga T.-V.Bagni di Fieno 1,,45.999662,11.085768,3690
4905_17,Marce' Sp 222 Km 0.650,,46.021054,10.822248,2241
4917_17,Tuenno-Via 4 Ville Civ. 41,,46.336658,11.028398,6155
4919_17,Verdesina-Paese,,46.054909,10.713245,2291
4921_17,Trentino Trasporti,,46.102234,11.094461,0937
4923_17,Civezzano-Maso Zandonà,,46.087830,11.190620,1100
4924_17,Mezzomonte-Loc. Barco,,45.922700,11.135809,3042
4926_17,Rovere' Della Luna,,46.248924,11.169539,6113
4939_17,Nago Bivio Z.A.I. Mala,,45.877840,10.898898,3470
4941_17,Imer Via Nazionale 144,,46.149793,11.791693,5110
4942_17,Cicona Sp Km 2.4,,46.160321,11.740895,5114
4951_17,Romagnano-Maso Bozza,,45.997977,11.101563,3620
4953_17,Casa Rossa-Bar Ristoro,,45.854845,10.566903,2314
4954_17,Sopramonte-Via Belina,,46.072241,11.063013,2621
4955_17,Sopramonte-Via Belina 11,,46.070915,11.063184,2621
4957_17,Sopramonte "Bunaga",,46.069391,11.057334,2621
4960_17,Nogarè-V.Di S.Giuseppe,,46.103967,11.211665,4023
4961_17,Calliano Sp 49 "Cimitero",,45.936629,11.098121,3040
4963_17,Lago di Terlago-Hotel Lillà,,46.097411,11.058247,2021
4964_17,Lago di Terlago-Ponte,,46.095602,11.055256,2021
4965_17,Salorno-Trenitalia,,46.245539,11.202524,1030
4967_17,Ora-Stazione Fstrenitalia,,46.360976,11.297562,1167
4970_17,Montagna,,46.333021,11.299352,
4971_17,Ponte Aldino,,46.342951,11.336949,
4972_17,Fraveggio Vernisi,,46.080553,10.995849,2040
4973_17,S. Michele A/Adige-Sc.Elem.,,46.189874,11.134127,6110
4979_17,Pergine-Via S.Pietro Asl,,46.063213,11.244429,4100
4980_17,Pergine V.S.Pietro Parch.Curie,,46.063433,11.245601,4100
4993_17,Sabbionara V.Pozza "Erta",,45.743006,10.967607,3349
4994_17,Sabbionara Via Morielle,,45.742358,10.956580,3349
5010_17,Morganti-Maso Romina,,45.930745,11.224036,3053
5013_17,Ponzolotti,,45.738779,11.070718,3337
5014_17,Revedea Sp 79 Civ. 18,,46.152752,11.747616,5115
5018_17,Vigolo Baselga-Paese,,46.081576,11.044892,2030
5025_17,Sardagna Civ.20,,46.073125,11.093579,2620
5035_17,Noriglio Loc. Masi Brenta,,45.878437,11.084034,3198
5037_17,Calceranica C.So Alpini Gmp,,46.001500,11.245598,4260
5038_17,Levico T. Fraz. Campiello,,46.018805,11.353077,4350
5043_17,Madonna di C.-Loc.Paluac,,46.205362,10.813260,0957
5049_17,Rocce Rosse-Nuovi Golfi,,46.032921,11.049854,2650
5050_17,Passo Cereda Civ 9,,46.192636,11.902743,5143
5051_17,Samoclevo-Bivio,,46.365038,10.937469,6280
5053_17,Termon Nord,,46.270225,11.036677,6151
5055_17,Ragoli "Macelleria",,46.051624,10.775140,2240
5059_17,Male' Via Degli Alpini 2,,46.353384,10.911178,6300
5060_17,Villini Dell'alpe Via Bolzano,,46.418562,11.189171,6630
5063_17,Coredo Via Tavon 42,,46.353683,11.088052,6501
5064_17,Coredo Via Trento,,46.347117,11.086840,6501
5065_17,Lavarone Civ. 61,,45.939296,11.273852,3870
5067_17,Andalo-Bivio Priori,,46.177371,11.017827,6137
5073_17,Scanna Civ. 51,,46.394740,11.024580,6705
5075_17,Castelfondo Via Dante,,46.452529,11.121792,6686
5077_17,S.Michele "Fondazione-Mensa",,46.194907,11.135489,6110
5080_17,Cogolo Polo Scolastico,,46.347399,10.696840,6405
5082_17,Strigno Via Colle Civ. 6,,46.067170,11.519093,4520
5087_17,Mezz.Do Via Perlasca "Martini",,46.217566,11.093386,6120
5088_17,Sabbionara Via De Gasperi,,45.738765,10.952482,3349
5090_17,Gionghi-Polo Scolastico,,45.940038,11.268658,3851
5091_17,Tobia-Gionghi,,45.940362,11.262788,3851
5092_17,Volano-Loc.Fornaci,,45.919376,11.085283,3070
5095_17,Loc.Piaggi Bassi,,45.800465,10.976077,3405
5102_17,Molveno Deposito,,46.149626,10.980086,0956
5103_17,Levico T. Polo Scolastico,,46.013611,11.306300,4300
5105_17,Fucine Scuola Media,,46.311138,10.732825,6401
5111_17,Loc. Coveli Civ. 35,,46.197724,11.143660,6095
5113_17,Fondo-Via Iv Novembre,,46.441452,11.130891,6580
5114_17,Ruffre' Maso Rautazzi,,46.415400,11.190242,6610
5116_17,Cavareno Via Roen 32,,46.403499,11.139586,6560
5119_17,Vervo'-Campanile,,46.307457,11.118916,6191
5131_17,Spiazzo Rend. Colarin Civ. 147,,46.109170,10.746099,2400
5133_17,Transacqua-Via Delle Fonti,,46.172998,11.829300,5140
5134_17,Masi-Via Micelette Civ. 4,,46.281815,11.499285,1070
5135_17,Maso Reigl,,45.972251,10.980800,2055
5136_17,Maso Samuele,,45.967937,10.979949,2055
5137_17,Maso Del Silvio,,45.966582,10.978171,2055
5138_17,Masi-Incrocio Via Zurlon,,45.964407,10.976932,2055
5139_17,Masi di Sotto,,45.966510,10.973483,2055
5141_17,Coredo Via Zambaroni 12,,46.349177,11.088842,6501
5144_17,Torchio Bivio Cogatti,,46.091010,11.196994,1001
5146_17,Ossana Scuola Elementare,,46.307678,10.739560,6398
5147_17,Portolo-Via San Tomaso,,46.305004,11.056616,6216
5150_17,Campitello Hotel Salvan,,46.474285,11.738380,1350
5151_17,Rovereto-Fermata Trenitalia,,45.890326,11.033850,3100
5162_17,Cire' Via Al Dos De La Roda 12,,46.074601,11.211551,4080
5165_17,Calavino-Via Battisti Civ 20,,46.040787,10.982034,2048
5169_17,Trento Ss45 "Scala",,46.077367,11.099792,0001
5173_17,Strigno Fs-Bretella Mag.Brico,,46.052372,11.510935,4449
5180_17,Busarel,,46.140566,11.773656,5111
5182_17,Tres Via Predaia Inc. V.Tavana,,46.322055,11.099929,6191
5183_17,Tres Via Predaia,,46.322014,11.096784,6191
5185_17,Mezzano-Sc.Elementare,,46.156586,11.808305,5130
5190_17,Centa Bv Tiecheri-Frisanchi,,45.965305,11.224658,3790
5196_17,Primolano-Staz. Fs,,45.965535,11.702533,4490
5201_17,Zona Industriale"Luxottica" R,,45.865303,11.018506,3100
5202_17,Romagnano Loc.Torricella Sft,,45.993002,11.098521,3620
5203_17,Sardagna Civ. 22,,46.069494,11.095252,2620
5204_17,Frassilongo-Maso Pinterstoll,,46.080380,11.285129,4113
5205_17,Grigno Casearia Monti Trentini,,46.006597,11.649483,4454
5207_17,Baitoni-Via Aldo Sette Civ.1,,45.813643,10.547147,2323
5213_17,Mezzano-Via Molaren 27,,46.160760,11.817183,5130
5214_17,Carano Via Coltura,,46.290493,11.440489,1070
5215_17,Pian Dei Casoni,,46.321572,11.778875,1223
5231_17,Barbine Sp 239 Km. 0.500,,46.157203,11.753757,5127
5234_17,.,,45.883525,10.807601,0960
5236_17,Favrio Civ. 65,,45.999626,10.852372,2185
5237_17,Carbonare Via Manzoni,,45.934041,11.229044,3820
5239_17,Viote Golfo Sulla Sp85,,46.021567,11.042522,2660
5240_17,Cadine Strada di Cadine 5,,46.086923,11.069368,2010
5248_17,Telve di Sopra Via S.Pio X,,46.073309,11.471692,4463
5252_17,Cavareno Via Roen 59,,46.400523,11.139886,6560
5253_17,Porte Via Al Brentegam,,45.880954,11.052889,3230
5254_17,Valmorbia Inc. Dosso/Tezze,,45.817360,11.094239,3159
5256_17,Sarnonico Viale S.Lorenzo,,46.419139,11.140627,6570
5257_17,Dambel-Loc. Casette,,46.409036,11.102603,6513
5259_17,Baitoni-V. Aldo Sette Civ.1,,45.812948,10.546639,2323
5260_17,Viale Industria Amnu,,46.068689,11.233672,4100
5263_17,Sabbionara V.Pozza Civ. 6,,45.743210,10.962575,3349
5264_17,Marcena-Sp 6,,46.442657,11.011787,6730
5266_17,Molveno-V.Nazionale,,46.141903,10.963974,0956
5268_17,Ortise' C/O Accesso Nord Paese,,46.328622,10.784462,6390
5273_17,Molina di F.-Via Weber/Rive,,46.273244,11.422097,1088
5275_17,Condino Sp123 Stab. Illen,,45.896086,10.606683,2311
5276_17,Aldeno Viale Europa,,45.982499,11.093579,3640
5277_17,Aldeno-Via Florida,,45.977966,11.092905,3640
5278_17,Serrada Via Pasubio,,45.888655,11.153269,3047
5280_17,Rocca,,45.753211,11.026404,3335
5297_17,Speccheri Sp 219 Km 1.100,,45.774515,11.122089,3165
5302_17,Stenico-Loc. Ca' Bianca,,46.052009,10.871109,2213
5352_17,Castello-Bivio di Stavel,,46.321463,10.782423,6389
5353_17,Ronzo Chienis-V.Pra Da Le Rì,,45.891098,10.949606,3389
5369_17,Lasino Sp 84 Viale San Pietro,,46.020354,10.982117,2049
5375_17,Fai Paganella,,46.175418,11.068633,6135
5382_17,Malgolo Piazza De Betta,,46.378987,11.091228,6530
5385_17,Manzano-Bivio,,45.864542,10.950121,3381
5392_17,Pian Del Gac Civ. 25,,46.133573,11.205898,1111
5394_17,Massone Via Cappuccini,,45.920537,10.901734,3520
5395_17,Ceole "Cementificio",,45.909601,10.855214,3520
5425_17,Zortea Bar Bellavista,,46.163628,11.753067,5116
5449_17,Ampola "Parch. Biotopo",,45.872717,10.652963,2159
5450_17,Ampola Parcheggio,,45.864065,10.645069,2159
5452_17,Tres Loc.Bonifica,,46.321235,11.082244,6191
5458_17,Terlago Via Omigo,,46.097912,11.047916,2021
5460_17,Hacleri-Maso Markl,,46.121312,11.339035,4143
5462_17,Via S.Pietro 82,,46.065063,11.248732,4100
5466_17,Taio Via Roma,,46.313915,11.070562,6190
5470_17,Regnana Alta,,46.151194,11.310710,4048
5472_17,Sporminore Civ. 86,,46.238268,11.027413,6143
5473_17,Sanzeno Civ. 61,,46.368681,11.078431,6510
5475_17,Rovereto-Via Savioli,,45.892086,11.037432,3100
5479_17,Claiano Nord-Sp 140,,46.316343,10.773087,6386
5483_17,Mattarello-Via Catoni,,46.003128,11.126824,3010
5484_17,Mattarello-Ex St.Vestimenta,,46.000537,11.126173,3010
5489_17,Nogarè-Via Pinetana 2/A,,46.100574,11.212098,4023
5491_17,Tassullo Strada Quattro Ville,,46.339776,11.052385,6210
5492_17,Santa Croce Sp 5 Diram.Bivedo,,46.024475,10.836250,2198
5494_17,Foppiano-Piazzale Chiesa,,45.840857,11.062823,3232
5499_17,Moena Ss.48-Zona Artigianale,,46.360950,11.644593,1250
5551_17,Molveno Lago di Bior,,46.138506,10.970987,0956
5594_17,Mori Via Del Garda. 63,,45.851453,10.972499,3310
5598_17,Tiarno di Sotto-S.Lucia,,45.892697,10.702086,2155
5604_17,Coredo "Rotatoria",,46.347618,11.081570,6501
5605_17,Fondo-Ss42 Bv Via Fanch,,46.429808,11.140902,6580
5606_17,Dimaro-Via Campiglio,,46.322945,10.875393,6340
5607_17,Ruffre' Maso Seppi,,46.418094,11.177388,6610
5608_17,Feltre-Via Rizzarda Civ. 16,,46.020977,11.900702,5010
5609_17,Borgo-Bocciodromo,,46.051717,11.454155,4400
5613_17,Cornè-Piazzale Deposito,,45.808537,10.977752,3405
5614_17,Bivio Stedileri,,45.873857,11.164281,3215
5615_17,Denno-Via Degasperi 42/A,,46.279341,11.047309,6151
5617_17,Cloz Loc. Panugola,,46.414140,11.082422,6665
5621_17,Villa Loc.S.Antonio,,45.930264,10.824043,2210
5624_17,Marilleva 1400,,46.304257,10.809213,6382
5625_17,Mori di Fronte Mc Donalds,,45.860462,11.001507,3542
5631_17,Bedollo Via Ronchi 4,,46.168616,11.309510,4050
5640_17,Flavon Via Nazionale 4/A,,46.296405,11.032208,6153
5641_17,Ospedale Villa Rosa,,46.064608,11.248558,4100
5646_17,Castione Bivio,,45.836795,10.958176,3407
5648_17,Telve Sp 110 Bv Via Borgo,,46.064371,11.476684,4461
5649_17,Castione Bivio,,45.836287,10.958377,3407
5650_17,Civezzano-Centro Europa,,46.083514,11.199034,1100
5665_17,Scurelle 15 Agosto 14,,46.063316,11.503596,4500
5666_17,Spera Vvff,,46.068554,11.510583,4448
5667_17,Imer Loc. Casa Bianca,,46.145312,11.801930,5110
5670_17,Rovere' Via 4 Novembre 71,,46.251031,11.183179,6113
5671_17,Marilleva Sp 206 Km 6.4,,46.303907,10.832291,6382
5673_17,Rovereto Borgo S.Caterina,,45.889512,11.040419,3100
5674_17,Favrio Civ. 51,,45.999617,10.846237,2185
5675_17,Pergine-Via Dolomiti,,46.067621,11.243146,4100
5678_17,Revo'-Via Maffei,,46.390022,11.064908,6655
5691_17,Roveda Sp233 Maso Obestol,,46.082076,11.291213,4113
5692_17,Malga Dimaro Bivio,,46.276144,10.859479,6344
5694_17,Aste,,45.793198,11.093462,3162
5696_17,Tomaselli Sp39 "Chiesetta",,46.069090,11.528336,4530
5699_17,Riva Loc. Dom,,45.900289,10.833787,0960
5700_17,Roveda-Maso Kopper,,46.068847,11.301889,4114
5701_17,Roveda-Maso Stiopetteri,,46.071529,11.302337,4114
5702_17,Campi Bivio Sp37 Dir.Lago di T,,45.925446,10.815205,2189
5703_17,Riva Del G.-Via Ardaro 43,,45.891649,10.838259,0960
5704_17,Campi Bv 37 Dir-X Loc Parisi,,45.911475,10.809102,2189
5705_17,Campi Loc.Zumiani,,45.904194,10.815853,2189
5706_17,Polsa Bivio,,45.784295,10.944359,3410
5707_17,Prada Bivio Per La Polsa,,45.800632,10.955918,3411
5708_17,Trento-Via Segantini,,46.075474,11.122352,0001
5716_17,Cimego Piazza,,45.912153,10.613053,2310
5717_17,Cimego Chiesa,,45.912842,10.612673,2310
5718_17,Mezzana Ftm,,46.313424,10.800346,6380
5719_17,Taio Via Alpini 12/14,,46.321229,11.068214,6190
5721_17,Mollaro Via Conci,,46.295061,11.073422,6170
5723_17,Tres-Fraz. Vion,,46.308186,11.079736,6180
5725_17,Barco Via Gaigher,,46.004944,11.328026,4310
5727_17,Mezzolordo Ex Sc. Media,,46.216707,11.092588,6120
5728_17,Darzo-Via Ten.C.Marini Civ.69,,45.838927,10.548389,2320
5732_17,Mezzana-Parco Giochi,,46.316587,10.796696,6380
5734_17,Fornace-Scuole,,46.117675,11.205600,1111
5736_17,Pieve Tesino Bv Val Malene,,46.067589,11.612977,4550
5743_17,Cavalese Via Mendini,,46.289875,11.460897,1070
5746_17,Civezzano-Via Fersina Avisio,,46.088597,11.184390,1100
5747_17,Civezzano-Via Fersina Avisio,,46.086806,11.183439,1100
5749_17,Lon-Via di Castel Tonin,,46.084949,10.991519,2040
5750_17,Mechel--Civ. 63,,46.354576,11.025435,6157
5753_17,Sarnonico Kennedy,,46.415641,11.140022,6570
5754_17,Cavareno Bar Claudia,,46.406869,11.137428,6560
5755_17,Belvedere di Ronzone,,46.428060,11.154396,6600
5760_17,Vervo' Via Castel Vervasium,,46.307589,11.121519,6191
5761_17,Vervo' Centro Sportivo Parch.,,46.312696,11.122729,6191
5762_17,Lover Via Lovernatico 94,,46.247098,11.016193,6144
5785_17,Canazei H.Lupo Bianco,,46.491136,11.781838,1362
5786_17,Canazei Bivio Passo Pordoi,,46.495763,11.787352,1362
5791_17,Canazei Loc. Pecol,,46.481795,11.788097,1367
5792_17,Canazei H. Pordoi,,46.487198,11.800492,1370
5794_17,Passo Pordoi,,46.487828,11.811834,1370
5795_17,Sanzenone Via Belvedere 39,,46.338958,11.044284,6210
5796_17,Sanzenone Via Belvedere 9,,46.337232,11.044142,6210
5797_17,Pavillo.,,46.331334,11.040788,6155
5798_17,Tuenno Nord R,,46.332295,11.025508,6155
5800_17,Nanno-Via Bergamo Civ. 5. R,,46.319385,11.046685,6210
5801_17,Nanno.,,46.314835,11.047438,6210
5809_17,Monte Terlago-Bivio,,46.108167,11.035614,2023
5810_17,Monte Terlago Boccari,,46.107772,11.033516,2023
5813_17,Mezzana,,46.315615,10.801833,6380
5814_17,Mezzana-Est,,46.317140,10.806690,6380
5821_17,Molveno Difr.Hotel Panorama,,46.142689,10.963264,0956
